City_ID,City,Lat,Lng,Max Temp,Humidity,Cloudiness,Wind Speed,Country,Date
0,mar del plata,-38.0023,-57.5575,59.02,80,0,20.71,AR,1697407203
1,puerto baquerizo moreno,-0.9,-89.6,81.59,69,40,10.36,EC,1697407088
2,albany,42.6001,-73.9662,53.06,77,100,3.0,US,1697407047
3,uvinza,-5.1036,30.3911,71.46,82,94,6.22,TZ,1697407284
4,bethel,41.3712,-73.414,56.75,70,97,8.08,US,1697407284
5,nantucket,41.2835,-70.0995,55.02,75,76,12.1,US,1697407284
6,bubaque,11.2833,-15.8333,82.8,83,97,15.05,GW,1697407284
7,sooke,48.3746,-123.7276,63.57,74,100,20.71,CA,1697407285
8,ulladulla,-35.35,150.4667,63.77,50,91,10.0,AU,1697407285
9,adamstown,-25.066,-130.1015,71.58,80,55,8.46,PN,1697407285
10,chimbote,-9.0853,-78.5783,68.56,80,91,10.87,PE,1697407285
11,pasuquin,18.3328,120.6177,76.95,94,75,2.3,PH,1697407286
12,venice,27.0998,-82.4543,78.98,67,75,17.27,US,1697407262
13,waitangi,-43.9535,-176.5597,54.82,77,26,11.99,NZ,1697407286
14,wailua homesteads,22.0669,-159.378,83.75,69,94,5.01,US,1697407286
15,jamestown,42.097,-79.2353,46.02,97,100,9.22,US,1697407286
16,edinburgh of the seven seas,-37.0676,-12.3116,53.76,83,84,29.75,SH,1697407287
17,weno,7.4515,151.8468,82.67,76,85,3.27,FM,1697407287
18,kirakira,-10.4544,161.9205,83.97,75,100,4.7,SB,1697407287
19,bredasdorp,-34.5322,20.0403,58.95,97,31,3.51,ZA,1697407287
20,ancud,-41.8697,-73.8203,50.18,77,47,14.97,CL,1697407228
21,blackmans bay,-43.0167,147.3167,49.73,69,56,3.0,AU,1697407288
22,cerro largo,-28.1486,-54.7381,74.64,85,1,3.02,BR,1697407288
23,punta arenas,-53.15,-70.9167,48.31,61,40,28.77,CL,1697407255
24,saint-pierre,-21.3393,55.4781,73.08,78,0,5.75,RE,1697407288
25,grytviken,-54.2811,-36.5092,33.66,90,76,11.88,GS,1697407289
26,tongliao,43.6125,122.2653,37.78,33,0,7.05,CN,1697407289
27,lihue,21.9789,-159.3672,84.36,69,96,8.63,US,1697407289
28,port-aux-francais,-49.35,70.2167,34.05,67,100,29.3,TF,1697407289
29,port alfred,-33.5906,26.891,62.19,96,100,5.01,ZA,1697407290
30,dakhla,23.6848,-15.958,77.02,61,100,11.5,EH,1697407290
31,berango,43.3579,-2.9726,62.71,79,0,5.75,ES,1697407290
32,antonio enes,-16.2325,39.9086,78.13,86,41,10.04,MZ,1697407290
33,khanbari,27.3747,87.2039,61.75,89,58,3.11,NP,1697407291
34,nagaur,27.2,73.7333,80.74,44,96,15.99,IN,1697407291
35,coahuayana de hidalgo,18.7,-103.6583,84.56,80,94,3.06,MX,1697407291
36,nouadhibou,20.931,-17.0347,89.58,19,14,14.97,MR,1697407291
37,nabire,-3.3667,135.4833,77.77,86,27,2.75,ID,1697407292
38,manta,-0.95,-80.7333,78.58,78,100,11.5,EC,1697407184
39,devonport,-41.1667,146.35,51.1,74,18,1.99,AU,1697407292
40,sogamoso,5.7143,-72.9339,57.97,90,100,4.76,CO,1697407292
41,ixmiquilpan,20.4833,-99.2333,62.6,86,100,4.85,MX,1697407292
42,kosh-agach,50.0,88.6667,29.3,77,94,4.0,RU,1697407293
43,ebaye,8.7748,167.7392,84.22,79,40,12.66,MH,1697407293
44,valle de la pascua,9.2155,-66.0073,83.61,64,83,1.59,VE,1697407293
45,bilibino,68.0546,166.4372,6.96,97,100,1.59,RU,1697407293
46,dudinka,69.4058,86.1778,19.67,91,31,8.01,RU,1697407294
47,pitimbu,-7.4706,-34.8086,79.39,74,99,13.0,BR,1697407294
48,kodiak,57.79,-152.4072,47.71,93,100,14.97,US,1697407294
49,avarua,-21.2078,-159.775,73.45,68,75,10.36,CK,1697407294
50,mafeteng,-29.823,27.2374,57.2,72,85,3.09,LS,1697407294
51,rouissat,31.9243,5.3502,73.47,23,0,6.91,DZ,1697407295
52,bumba,2.1833,22.4667,70.7,98,100,0.78,CD,1697407295
53,hermanus,-34.4187,19.2345,60.19,90,19,9.53,ZA,1697407295
54,port elizabeth,-33.918,25.5701,62.89,96,75,17.27,ZA,1697407295
55,isafjordur,66.0755,-23.124,39.2,99,100,12.59,IS,1697407296
56,iqaluit,63.7506,-68.5145,31.73,69,75,13.8,CA,1697407296
57,birendranagar,28.6019,81.6339,63.63,76,95,5.26,NP,1697407296
58,invercargill,-46.4,168.35,46.02,81,100,11.01,NZ,1697407152
59,ta`u,-14.2336,-169.5144,79.5,78,59,19.24,AS,1697407296
60,salinopolis,-0.6136,-47.3561,80.91,81,28,15.55,BR,1697407297
61,kavaratti,10.5669,72.642,81.63,72,78,6.11,IN,1697407297
62,ushuaia,-54.8,-68.3,44.26,65,40,24.16,AR,1697407297
63,opp,31.2827,-86.2555,62.53,71,100,12.66,US,1697407297
64,corner brook,48.9667,-57.9484,51.96,90,69,1.88,CA,1697407210
65,west island,-12.1568,96.8225,76.98,78,40,13.8,CC,1697407298
66,broken hill,-31.95,141.4333,57.0,67,28,20.15,AU,1697407298
67,margaret river,-33.95,115.0667,61.77,58,100,11.72,AU,1697407298
68,happy valley-goose bay,53.3168,-60.3315,46.71,87,100,12.66,CA,1697407010
69,olyokminsk,60.3736,120.4264,27.99,84,100,1.01,RU,1697407111
70,nuuk,64.1835,-51.7216,30.81,74,20,15.01,GL,1697407299
71,akureyri,65.6835,-18.0878,40.93,81,100,0.0,IS,1697407299
72,pineville,31.3224,-92.4343,66.87,56,100,11.63,US,1697407299
73,college,64.8569,-147.8028,41.2,90,75,4.61,US,1697407300
74,mayya,61.7333,130.2811,13.32,77,5,1.97,RU,1697407300
75,vacaria,-28.5122,-50.9339,55.45,97,54,9.22,BR,1697407300
76,puerto natales,-51.7236,-72.4875,42.37,86,50,8.77,CL,1697407145
77,enewetak,11.3474,162.3373,83.28,76,94,10.89,MH,1697407301
78,beau vallon,-20.4189,57.6953,70.21,88,20,4.61,MU,1697407301
79,chulakkurgan,43.765,69.1814,43.93,52,5,2.95,KZ,1697407301
80,whitehorse,60.7161,-135.0538,48.97,64,40,15.01,CA,1697407301
81,nelson bay,-32.7167,152.15,72.0,57,2,10.0,AU,1697407302
82,kargopol',61.5071,38.9456,46.06,80,87,11.01,RU,1697407302
83,ilulissat,69.2167,-51.1,19.42,93,100,26.46,GL,1697407302
84,puerto ayora,-0.7393,-90.3518,84.16,89,92,5.99,EC,1697407302
85,dailekh,28.8333,81.6667,60.42,74,96,6.31,NP,1697407303
86,touros,-5.1989,-35.4608,77.65,79,99,19.57,BR,1697407303
87,luanco,43.6152,-5.7934,63.01,93,99,11.07,ES,1697407303
88,howrah,22.5892,88.3103,78.8,89,20,0.0,IN,1697407184
89,lebu,-37.6167,-73.65,51.22,68,3,19.75,CL,1697407303
90,flin flon,54.7682,-101.865,55.24,58,20,4.61,CA,1697407304
91,thinadhoo,0.5333,72.9333,81.88,75,58,16.82,MV,1697407304
92,yaren,-0.5472,166.916,83.93,71,72,2.53,NR,1697407304
93,tidjikja,18.5564,-11.4271,83.91,12,1,8.7,MR,1697407305
94,acarau,-2.8856,-40.12,80.06,75,96,18.86,BR,1697407041
95,longyearbyen,78.2186,15.6401,30.04,74,75,13.8,SJ,1697407305
96,bamboo flat,11.7,92.7167,77.09,100,20,0.0,IN,1697407305
97,metlili chaamba,32.2667,3.6333,74.34,17,0,5.75,DZ,1697407156
98,vangviang,18.9333,102.45,72.81,94,96,1.61,LA,1697407306
99,flying fish cove,-10.4217,105.6791,78.48,88,75,10.36,CX,1697407306
100,olonkinbyen,70.9221,-8.7187,33.31,73,91,8.23,SJ,1697407306
101,keflavik,64.0049,-22.5624,46.31,100,75,16.11,IS,1697407307
102,stanley,54.868,-1.6985,41.05,88,0,4.61,GB,1697407307
103,katsuura,35.1333,140.3,65.57,73,1,12.44,JP,1697407307
104,jaworzno,50.2053,19.275,42.46,99,95,10.6,PL,1697407307
105,kodinsk,58.6881,99.1844,40.44,91,100,7.05,RU,1697407308
106,san juan de miraflores,-12.1629,-76.9635,72.18,72,99,8.5,PE,1697407308
107,kittila,67.6647,24.8936,35.74,87,100,16.11,FI,1697407308
108,edeia,-17.3383,-49.9314,84.18,48,79,4.23,BR,1697407308
109,tirmiz,37.2242,67.2783,48.29,66,0,4.61,UZ,1697407309
110,susuman,62.7833,148.1667,14.99,83,100,1.99,RU,1697407309
111,ust-nera,64.5667,143.2,2.21,99,82,4.0,RU,1697407309
112,afaahiti,-17.75,-149.2833,82.27,78,66,7.58,PF,1697407309
113,rhyl,53.3196,-3.4886,45.99,67,99,1.99,GB,1697407310
114,pudozh,61.8099,36.5345,45.95,82,97,13.0,RU,1697407310
115,ola,59.5833,151.2833,34.41,67,100,6.67,RU,1697407310
116,severo-yeniseyskiy,60.3725,93.0408,33.58,90,99,8.99,RU,1697407311
117,vershino-darasunskiy,52.35,115.5167,28.42,58,81,3.2,RU,1697407311
118,puerto aysen,-45.4,-72.7,46.45,95,92,3.49,CL,1697407311
119,darwin,-12.4611,130.8418,76.98,88,0,1.14,AU,1697407210
120,ostashkov,57.1467,33.1075,45.61,77,95,9.71,RU,1697407311
121,qorveh,35.1664,47.8045,58.35,34,45,5.14,IR,1697407312
122,ouadda,8.0777,22.4007,68.14,95,100,3.22,CF,1697407312
123,atafu village,-8.5421,-172.5159,82.71,78,99,20.15,TK,1697407312
124,brookings,44.3114,-96.7984,55.11,54,20,10.36,US,1697407187
125,mount pearl,47.5166,-52.7813,52.95,83,75,8.05,CA,1697407313
126,soe,-9.8607,124.284,67.12,56,49,4.27,ID,1697407313
127,mugia,43.1041,-9.2179,65.16,90,94,18.28,ES,1697407313
128,saint-francois,46.4154,3.9054,45.68,81,0,4.61,FR,1697407313
129,takoradi,4.8845,-1.7554,77.5,89,53,8.37,GH,1697407313
130,alaverdi,41.0977,44.6732,50.95,87,83,0.98,AM,1697407314
131,hirado,33.3597,129.5531,67.6,58,30,13.51,JP,1697407314
132,colonia,50.9333,6.95,45.97,86,0,1.14,DE,1697407227
133,dongcun,36.7767,121.1597,52.83,52,0,4.88,CN,1697407314
134,jabat,7.75,168.9751,82.96,74,13,9.51,MH,1697407315
135,cabo san lucas,22.8909,-109.9124,92.61,65,1,10.47,MX,1697407201
136,gizo,-8.103,156.8419,82.71,76,74,9.64,SB,1697407315
137,whakatane,-37.9585,176.9854,62.89,54,100,3.58,NZ,1697407316
138,punta del este,-34.9667,-54.95,68.11,79,20,15.01,UY,1697407316
139,bardai,11.65,7.2333,76.62,35,21,3.11,NG,1697407316
140,tiksi,71.6872,128.8694,15.01,88,100,16.08,RU,1697407317
141,pailon,-17.65,-62.75,94.68,26,24,10.78,BO,1697407317
142,kantabanji,20.4833,82.9167,71.08,75,5,2.89,IN,1697407317
143,ukiah,39.1502,-123.2078,83.44,38,0,9.22,US,1697407053
144,siwa oasis,29.2041,25.5195,75.13,38,0,5.93,EG,1697407317
145,dien bien phu,21.3833,103.0167,64.92,99,98,2.46,VN,1697407129
146,al bardiyah,31.7561,25.0865,71.65,73,0,9.95,LY,1697407318
147,port moresby,-9.4431,147.1797,74.62,94,75,4.61,PG,1697407318
148,fortuna,40.5982,-124.1573,71.92,83,0,9.22,US,1697407318
149,rio grande,-32.035,-52.0986,68.11,87,40,19.75,BR,1697407122
150,dukhan,25.4297,50.7858,84.69,58,0,5.86,QA,1697407319
151,holualoa,19.6228,-155.9522,79.77,77,89,5.01,US,1697407319
152,yanjiang,30.1211,104.6481,65.95,85,100,2.51,CN,1697407319
153,cidreira,-30.1811,-50.2056,64.8,86,12,22.64,BR,1697407193
154,alesund,62.4723,6.1549,45.75,81,75,8.05,NO,1697407320
155,zhangatas,43.5667,69.75,44.02,53,4,9.57,KZ,1697407320
156,colesberg,-30.72,25.0972,56.17,66,100,17.31,ZA,1697407320
157,mukalla,14.5425,49.1242,79.34,79,67,3.0,YE,1697407320
158,arraial do cabo,-22.9661,-42.0278,73.36,83,75,11.5,BR,1697407321
159,rongelap,11.1635,166.8941,82.81,76,30,13.69,MH,1697407321
160,kristiansund,63.1115,7.732,41.05,81,75,5.75,NO,1697407321
161,juan griego,11.0817,-63.9655,100.53,44,27,11.5,VE,1697407321
162,wynyard,-41.0,145.7167,51.31,61,18,12.08,AU,1697407322
163,nova sintra,14.8667,-24.7167,76.8,73,100,9.8,CV,1697407322
164,briar,32.9951,-97.5428,68.04,45,0,3.0,US,1697407323
165,pangoa,-12.1167,-73.0,81.12,67,32,2.95,PE,1697407323
166,alaghsas,17.0187,8.0168,85.68,14,0,15.03,NE,1697407323
167,codajas,-3.8367,-62.0569,85.91,52,91,1.77,BR,1697407323
168,mandiana,10.6333,-8.6833,74.12,75,89,6.64,GN,1697407323
169,yellowknife,62.456,-114.3525,50.41,86,40,16.11,CA,1697407067
170,queenstown,-31.8976,26.8753,53.2,87,100,9.89,ZA,1697407324
171,galle,6.0367,80.217,78.46,86,84,4.07,LK,1697407325
172,dunhua,43.3725,128.2425,34.32,47,0,8.55,CN,1697407325
173,callao,-12.0667,-77.15,73.72,73,100,12.66,PE,1697407325
174,island harbour,50.724,-1.2758,45.99,73,100,1.99,GB,1697407326
175,sinabang,2.4803,96.3801,77.59,87,99,7.34,ID,1697407326
176,chonchi,-42.6128,-73.8092,52.12,82,82,2.64,CL,1697407096
177,sao joao da barra,-21.6403,-41.0511,75.29,93,100,3.83,BR,1697407250
178,thompson,55.7435,-97.8558,57.36,54,20,2.3,CA,1697407327
179,alice springs,-23.7,133.8833,67.55,24,0,4.61,AU,1697407328
180,san patricio,28.017,-97.5169,80.69,25,0,15.93,US,1697407328
181,horta,38.5333,-28.6333,71.02,92,100,23.0,PT,1697407328
182,constantia,44.1833,28.65,59.7,73,10,11.5,RO,1697407152
183,itacarambi,-15.1022,-44.0919,86.34,23,55,3.69,BR,1697407329
184,port mathurin,-19.6833,63.4167,74.07,84,19,11.48,MU,1697407263
185,haiku-pauwela,20.9219,-156.3051,85.17,68,95,8.99,US,1697407329
186,mao,39.8885,4.2658,68.56,88,40,9.22,ES,1697407329
187,lazaro cardenas,17.9583,-102.2,81.12,85,97,3.87,MX,1697407330
188,humberto de campos,-2.5983,-43.4611,78.62,82,65,7.99,BR,1697407330
189,inhambane,-23.865,35.3833,69.85,79,100,7.94,MZ,1697407330
190,badger,64.8,-147.5333,41.13,90,40,4.61,US,1697407330
191,karachev,53.1229,34.9852,46.98,92,100,5.08,RU,1697407331
192,la passe,45.5549,-0.8967,54.01,49,100,16.08,FR,1697407331
193,calvinia,-31.4707,19.776,59.97,35,0,4.0,ZA,1697407331
194,papatowai,-46.5619,169.4708,49.46,60,77,8.66,NZ,1697407331
195,cartagena,10.3997,-75.5144,87.42,74,20,9.22,CO,1697407331
196,beoumi,7.6736,-5.5764,74.41,95,100,3.74,CI,1697407332
197,srivardhan,18.0333,73.0167,78.46,81,21,3.15,IN,1697407332
198,qinzhou,21.95,108.6167,70.84,79,54,5.55,CN,1697407332
199,soavinandriana,-19.1667,46.7333,61.77,90,6,2.35,MG,1697407332
200,villa elisa,-25.3667,-57.6167,96.04,39,40,5.75,PY,1697407333
201,verdal,63.7933,11.4817,41.04,69,79,14.76,NO,1697407333
202,kailua-kona,19.6406,-155.9956,83.28,74,40,10.36,US,1697407162
203,georgetown,5.4112,100.3354,80.53,89,20,2.3,MY,1697407278
204,east london,-33.0153,27.9116,64.81,85,100,21.23,ZA,1697407060
205,vilyuchinsk,52.9306,158.4028,46.67,97,100,5.17,RU,1697407334
206,luganville,-15.5333,167.1667,80.44,82,81,11.07,VU,1697407334
207,new norfolk,-42.7826,147.0587,50.92,70,65,6.98,AU,1697407335
208,boulsa,12.6675,-0.5758,88.66,32,57,9.28,BF,1697407335
209,ar rutbah,33.0381,40.2848,67.28,54,0,15.93,IQ,1697407335
210,shache,38.4167,77.2406,55.71,30,100,5.75,CN,1697407335
211,petropavlovsk-kamchatsky,53.0452,158.6483,45.19,88,75,5.01,RU,1697407336
212,porto novo,6.4965,2.6036,82.22,85,100,5.12,BJ,1697407152
213,vila velha,-20.3297,-40.2925,73.35,99,100,5.75,BR,1697407102
214,talnakh,69.4865,88.3972,16.21,93,24,1.63,RU,1697407336
215,plouzane,48.3833,-4.6167,50.18,71,0,11.5,FR,1697407337
216,hawaiian paradise park,19.5933,-154.9731,83.88,77,69,1.99,US,1697407337
217,kapuskasing,49.4169,-82.4331,42.8,87,100,16.11,CA,1697407121
218,anloga,5.7947,0.8973,80.47,85,74,10.89,GH,1697407337
219,wotho,10.1657,166.0102,83.43,76,21,14.45,MH,1697407337
220,mende,44.6667,3.5,36.27,67,100,7.18,FR,1697407338
221,ashland,40.8167,-82.2665,51.87,84,86,13.71,US,1697407228
222,villa gesell,-37.2639,-56.973,55.49,76,1,18.12,AR,1697407338
223,anadyr,64.75,177.4833,32.5,93,40,2.24,RU,1697407338
224,vorgashor,67.5833,63.95,30.31,97,100,13.04,RU,1697407338
225,utrik,11.2278,169.8474,82.58,75,11,11.92,MH,1697407339
226,redencao,-4.2258,-38.7306,77.23,78,50,5.66,BR,1697407339
227,hasaki,35.7333,140.8333,54.0,64,0,2.91,JP,1697407339
228,mahalapye,-23.1041,26.8142,65.37,78,100,19.33,BW,1697407339
229,saipan,15.1355,145.701,81.64,77,96,7.83,MP,1697407340
230,hithadhoo,-0.6,73.0833,81.64,76,23,17.0,MV,1697407340
231,ribeira grande,38.5167,-28.7,71.78,92,100,23.0,PT,1697407341
232,alvaraes,-3.2208,-64.8042,91.27,49,43,2.3,BR,1697407341
233,aasiaat,68.7098,-52.8699,21.78,73,100,3.47,GL,1697407341
234,kavieng,-2.5744,150.7967,82.89,73,99,6.44,PG,1697407342
235,obihiro,42.9172,143.2044,52.83,93,74,1.05,JP,1697407342
236,tazovsky,67.4667,78.7,33.89,98,100,2.8,RU,1697407342
237,qaqortoq,60.7167,-46.0333,37.65,87,86,2.64,GL,1697407342
238,arkhangel'sk,64.5401,40.5433,45.12,93,81,9.75,RU,1697407342
239,lucapa,-8.4192,20.7447,67.82,80,79,1.21,AO,1697407343
240,fort abbas,29.1925,72.8536,82.18,33,96,3.8,PK,1697407343
241,nuku'alofa,-21.1333,-175.2,77.34,73,40,13.8,TO,1697407343
242,portage,41.1667,-81.1998,50.04,80,100,8.05,US,1697407344
243,tazacorte,28.629,-17.9293,83.16,37,0,5.99,ES,1697407344
244,st. john's,47.5649,-52.7093,54.79,82,75,8.05,CA,1697407213
245,cestos city,5.46,-9.5828,78.35,86,100,9.06,LR,1697407344
246,fale old settlement,-9.3852,-171.2468,83.32,73,34,21.79,TK,1697407344
247,cooma,-36.2333,149.1333,47.53,77,98,11.65,AU,1697407211
248,chandpur,29.15,78.2667,71.49,53,21,2.8,IN,1697407345
249,maragogi,-9.0122,-35.2225,76.78,76,89,10.33,BR,1697407345
250,gebeit,21.0667,36.3167,74.46,53,0,5.01,SD,1697407345
251,san martin,-33.081,-68.4681,82.94,13,5,5.23,AR,1697407346
252,klyuchi,52.2667,79.1667,39.56,77,20,6.62,RU,1697407346
253,iscar,41.3434,-4.5246,61.36,86,100,5.86,ES,1697407346
254,novodvinsk,64.4165,40.8122,44.78,93,84,9.62,RU,1697407346
255,sodankyla,67.4167,26.6,32.94,99,100,4.94,FI,1697407346
256,axim,4.8699,-2.2405,77.72,89,43,8.16,GH,1697407347
257,udachny,66.4167,112.4,23.45,92,100,7.87,RU,1697407310
258,tual,-5.6667,132.75,79.72,79,86,15.84,ID,1697407347
259,new batu batu,5.0667,119.8833,81.88,77,100,4.43,PH,1697407347
260,warwick,41.7001,-71.4162,57.9,60,75,10.36,US,1697407348
261,beira,-19.8436,34.8389,78.89,83,20,13.0,MZ,1697407052
262,iquique,-20.2208,-70.1431,66.24,92,65,5.68,CL,1697407227
263,laurel,39.0993,-76.8483,58.93,62,100,6.91,US,1697407201
264,nguigmi,14.2495,13.1092,88.52,25,23,11.95,NE,1697407348
265,calingasta,-31.3308,-69.4078,78.19,6,39,14.97,AR,1697407349
266,meadow lakes,61.6247,-149.6011,53.04,62,100,3.0,US,1697407349
267,inirida,3.8653,-67.9239,76.32,93,77,3.24,CO,1697407349
268,dalnegorsk,44.5604,135.5701,41.59,59,1,11.01,RU,1697407349
269,kabompo,-13.5927,24.2008,67.62,71,67,3.22,ZM,1697407350
270,petawawa,45.9001,-77.3328,49.78,85,100,9.22,CA,1697407350
271,luderitz,-26.6481,15.1594,58.77,80,0,6.49,NA,1697407350
272,tutoia,-2.7619,-42.2744,80.28,80,98,13.51,BR,1697407268
273,alcala del valle,36.9045,-5.1724,61.77,62,96,2.64,ES,1697407351
274,faro,37.0194,-7.9322,71.38,88,20,4.61,PT,1697407351
275,pandan,14.0453,124.1694,80.02,81,87,7.16,PH,1697407351
276,santa rita do sapucai,-22.2522,-45.7033,72.12,75,95,2.77,BR,1697407351
277,quellon,-43.1167,-73.6167,48.4,83,90,4.63,CL,1697407281
278,miracema do tocantins,-9.5618,-48.3967,89.69,32,48,1.72,BR,1697407352
279,challapata,-18.9,-66.7667,64.98,17,61,17.34,BO,1697407352
280,arno,60.1167,18.6333,44.78,64,36,16.04,SE,1697407352
281,mejit,10.2753,170.8646,82.42,75,18,10.65,MH,1697407352
282,port lincoln,-34.7333,135.8667,55.31,65,44,16.93,AU,1697407353
283,aljezur,37.3191,-8.8033,68.02,96,46,3.02,PT,1697407353
284,nikfer,37.4054,29.1373,54.61,65,0,1.1,TR,1697407353
285,iskateley,67.6803,53.1512,33.03,87,100,20.0,RU,1697407353
286,coxen hole,16.3244,-86.5366,88.88,70,20,11.5,HN,1697407218
287,hotan,37.0997,79.9269,59.86,23,100,3.76,CN,1697407354
288,byron bay,-28.65,153.6167,79.72,57,1,13.51,AU,1697407354
289,great bend,38.3645,-98.7648,55.62,47,0,14.97,US,1697407326
290,sarkand,45.41,79.9186,42.28,54,83,2.93,KZ,1697407355
291,grand falls-windsor,48.9332,-55.6649,51.51,83,89,5.08,CA,1697407355
292,nar'yan-mar,67.6713,53.087,33.12,87,100,20.0,RU,1697407355
293,dryden,49.7833,-92.7503,52.09,62,0,6.91,CA,1697407325
294,dunedin,-45.8742,170.5036,57.07,38,37,6.58,NZ,1697407356
295,port-vila,-17.7338,168.3219,78.4,89,100,13.8,VU,1697407356
296,fort bragg,35.139,-79.006,60.64,69,100,3.44,US,1697407356
297,poxoreo,-15.8372,-54.3892,84.96,47,90,3.27,BR,1697407305
298,hadibu,12.65,54.0333,79.7,77,44,3.36,YE,1697407357
299,daru,-9.0763,143.2092,78.69,82,79,12.91,PG,1697407357
300,uyskoye,54.3775,60.0047,45.9,79,95,9.89,RU,1697407357
301,revda,56.801,59.9303,46.18,85,100,13.78,RU,1697407358
302,sokoni,-6.4333,39.55,79.18,86,24,9.64,TZ,1697407358
303,yung shue wan,22.2333,114.1167,78.67,78,99,1.99,HK,1697407358
304,ovalle,-30.5983,-71.2003,73.89,34,100,6.13,CL,1697407358
305,loreto,22.2667,-101.9667,73.17,42,100,16.06,MX,1697407359
306,helena valley southeast,46.6153,-111.9216,74.21,55,53,2.68,US,1697407359
307,brezoi,45.338,24.2486,50.76,90,100,10.18,RO,1697407359
308,ocos,14.5094,-92.1933,84.38,72,33,4.29,GT,1697407360
309,trinity beach,-16.7888,145.6968,75.09,69,79,6.91,AU,1697407360
310,zhosaly,45.4878,64.0781,51.4,57,8,6.11,KZ,1697407360
311,mangrol,21.1167,70.1167,78.64,81,0,8.1,IN,1697407360
312,prieska,-29.6641,22.7474,66.22,33,56,17.43,ZA,1697407360
313,mthatha,-31.5889,28.7844,57.76,88,96,6.91,ZA,1697407361
314,santa cruz,-17.8,-63.1667,93.25,38,6,14.97,BO,1697407361
315,nagqu,31.5,92.0,25.75,92,63,2.93,CN,1697407164
316,uturoa,-16.7333,-151.4333,78.49,74,2,9.33,PF,1697407361
317,saint-philippe,-21.3585,55.7679,72.99,84,38,5.1,RE,1697407307
318,hamilton,39.1834,-84.5333,54.88,63,76,8.01,US,1697407214
319,kununurra,-15.7667,128.7333,60.78,77,58,1.14,AU,1697407362
320,madalena,41.2162,-8.3345,66.78,93,100,3.2,PT,1697407362
321,vilhena,-12.7406,-60.1458,89.82,48,20,2.3,BR,1697407363
322,serres,41.0856,23.5497,60.4,76,8,1.14,GR,1697407363
323,pemangkat,1.1667,108.9667,79.52,88,100,4.63,ID,1697407363
324,geraldton,-28.7667,114.6,73.81,15,79,12.66,AU,1697407363
325,magadan,59.5667,150.8,33.82,66,100,3.0,RU,1697407363
326,hammerfest,70.6634,23.6821,39.65,87,75,24.16,NO,1697407364
327,vanino,49.0869,140.2543,45.93,80,100,4.88,RU,1697407364
328,staryy sambir,49.4386,23.0006,41.36,81,68,4.68,UA,1697407364
329,chulym,55.0997,80.9572,36.86,77,38,6.91,RU,1697407364
330,praia da vitoria,38.7333,-27.0667,72.75,88,40,36.95,PT,1697407365
331,ballito,-29.539,31.2144,64.54,94,100,6.91,ZA,1697407365
332,bovril,-31.3431,-59.4451,78.91,42,63,9.57,AR,1697407365
333,nadi,-17.8,177.4167,80.6,65,40,16.11,FJ,1697407365
334,portland,45.5234,-122.6762,73.0,70,0,5.75,US,1697407345
335,igarka,67.4667,86.5833,34.12,100,100,1.61,RU,1697407366
336,aykhal,66.0,111.5,19.08,85,100,5.01,RU,1697407214
337,mutum biyu,8.6333,10.7667,78.71,79,82,5.06,NG,1697407366
338,grand baie,-20.0182,57.5802,70.45,75,26,7.0,MU,1697407366
339,baotou,40.6522,109.8222,51.22,41,4,3.98,CN,1697407367
340,el porvenir,13.7617,-87.3458,79.93,90,88,3.74,HN,1697407367
341,timbuktu,16.7735,-3.0074,90.75,12,23,9.06,ML,1697407367
342,port saint john's,-31.6229,29.5448,64.63,89,100,12.33,ZA,1697407367
343,battle creek,42.3212,-85.1797,53.98,28,100,14.18,US,1697407306
344,pijijiapan,15.7011,-93.23,82.81,88,98,2.19,MX,1697407368
345,dourados,-22.2211,-54.8056,80.06,64,89,13.35,BR,1697407308
346,rikaze,29.25,88.8833,39.58,57,47,3.56,CN,1697407368
347,tianfu,37.1936,122.0511,54.59,41,0,8.9,CN,1697407368
348,ende,-8.8432,121.6623,76.77,71,5,1.21,ID,1697407368
349,kolonia,50.9333,6.95,45.97,86,0,1.14,DE,1697407227
350,james city,35.0888,-77.035,60.03,77,92,3.44,US,1697407369
351,faya-largeau,17.9257,19.1043,84.81,21,34,12.68,TD,1697407369
352,muli,2.9167,73.5667,81.93,78,90,15.32,MV,1697407369
353,bangar,16.8936,120.4243,77.07,86,90,4.88,PH,1697407370
354,tomatlan,19.9333,-105.25,87.71,72,79,7.05,MX,1697407370
355,berdigestyakh,62.0989,126.6992,12.29,97,41,3.0,RU,1697407370
356,handan,36.6006,114.4678,57.61,61,0,7.76,CN,1697407370
357,kandalaksha,67.162,32.4123,30.9,96,100,3.0,RU,1697407370
358,nyurba,63.2842,118.3319,20.1,89,100,5.99,RU,1697407371
359,sinop,41.7711,34.8709,57.6,56,73,5.59,TR,1697407325
360,sigli,5.3848,95.9609,78.62,80,100,4.07,ID,1697407371
361,rizhao,35.4275,119.4553,55.76,60,0,8.3,CN,1697407371
362,essaouira,31.5125,-9.77,78.3,36,75,1.14,MA,1697407371
363,gadzhiyevo,69.2551,33.3362,39.02,89,97,13.24,RU,1697407372
364,sao jose da coroa grande,-8.8978,-35.1478,76.87,75,76,10.74,BR,1697407372
365,eyl,7.9803,49.8164,80.76,77,17,6.35,SO,1697407372
366,okhotsk,59.3833,143.3,36.12,76,100,10.92,RU,1697407372
367,palikir - national government center,6.9248,158.1611,83.25,84,75,3.44,FM,1697407373
368,champerico,14.3,-91.9167,91.94,72,48,4.03,GT,1697407373
369,enoch,37.7733,-113.0244,76.48,20,0,5.75,US,1697407373
370,ndele,8.4109,20.6473,71.15,98,100,2.42,CF,1697407373
371,laojunmiao,39.8333,97.7333,40.05,39,59,1.21,CN,1697407374
372,general cabrera,-32.8131,-63.8724,85.66,24,5,13.35,AR,1697407374
373,codrington,-38.2667,141.9667,50.86,65,91,22.79,AU,1697407374
374,fort st. john,56.2499,-120.8529,58.89,51,75,10.36,CA,1697407374
375,ulan bator,47.9077,106.8832,44.73,31,0,4.47,MN,1697407256
376,arauquita,7.0292,-71.4281,77.88,95,73,2.04,CO,1697407375
377,mawu,29.5923,107.3139,60.71,83,29,3.56,CN,1697407375
378,saint-mandrier-sur-mer,43.078,5.929,64.2,54,0,2.3,FR,1697407375
379,urucara,-2.5364,-57.76,91.8,36,40,5.26,BR,1697407376
380,miyako,39.6367,141.9525,58.5,84,9,6.31,JP,1697407376
381,rio gallegos,-51.6226,-69.2181,55.45,30,20,29.93,AR,1697407295
382,izazi,-7.2,35.7333,77.9,57,9,4.54,TZ,1697407376
383,hauterive,46.0901,3.4459,47.16,68,100,4.5,FR,1697407377
384,buncrana,55.1333,-7.45,42.12,79,100,3.91,IE,1697407377
385,coracora,-15.0333,-73.7833,56.12,70,97,5.79,PE,1697407377
386,mata-utu,-13.2816,-176.1745,81.41,79,100,19.57,WF,1697407377
387,hobyo,5.3505,48.5268,81.28,82,52,13.13,SO,1697407378
388,chegdomyn,51.1167,133.0167,28.33,85,84,1.01,RU,1697407378
389,sydney,-33.8679,151.2073,71.62,55,40,9.22,AU,1697407319
390,walcz,53.2779,16.4712,44.35,81,63,16.04,PL,1697407378
391,az zubayr,30.3945,47.7011,73.26,49,0,11.5,IQ,1697407378
392,chimoio,-19.1164,33.4833,66.38,94,100,3.0,MZ,1697407379
393,wewak,-3.5534,143.6268,80.83,85,83,3.22,PG,1697407379
394,road town,18.4167,-64.6167,86.04,70,20,5.75,VG,1697407379
395,inari,68.906,27.0288,32.2,98,100,10.22,FI,1697407379
396,fada,9.5667,8.3,70.48,90,92,1.81,NG,1697407379
397,mocimboa,-11.3167,40.35,75.18,95,24,5.59,MZ,1697407380
398,najafabad,32.6344,51.3668,52.34,29,21,1.39,IR,1697407380
399,drayton valley,53.2168,-114.9854,60.96,43,5,10.16,CA,1697407327
400,yeppoon,-23.1333,150.7333,73.18,67,7,6.42,AU,1697407380
401,kruisfontein,-34.0033,24.7314,58.33,95,29,8.19,ZA,1697407381
402,esil,51.9556,66.4042,50.68,63,100,12.62,KZ,1697407381
403,wuchuan,21.4571,110.7659,72.48,81,81,6.4,CN,1697407382
404,tondano,1.3038,124.9112,66.29,85,53,2.37,ID,1697407382
405,swidwin,53.7746,15.7767,49.14,100,59,14.41,PL,1697407382
406,valdemorillo,40.5006,-4.0671,58.89,93,100,3.58,ES,1697407382
407,pisco,-13.7,-76.2167,71.65,68,0,9.22,PE,1697407300
408,ketchikan,55.3422,-131.6461,52.12,95,100,4.41,US,1697407383
409,chiautla de tapia,18.2833,-98.6,84.63,49,100,3.29,MX,1697407383
410,shagonar,51.5333,92.8,43.81,69,100,4.54,RU,1697407383
411,les andelys,49.25,1.4167,43.81,62,100,6.89,FR,1697407383
412,pueblo nuevo,23.3833,-105.3833,66.65,76,70,1.48,MX,1697407384
413,kholmsk,47.0511,142.0569,49.87,93,100,7.76,RU,1697407384
414,san luis,-33.295,-66.3356,81.25,20,3,9.42,AR,1697407384
415,naze,28.3667,129.4833,67.12,60,49,11.27,JP,1697407384
416,robertsport,6.7533,-11.3686,78.75,86,100,8.1,LR,1697407385
417,rio branco,-9.9747,-67.81,88.41,58,40,12.66,BR,1697407385
418,aldama,22.9167,-98.0667,83.5,36,90,14.65,MX,1697407385
419,coruripe,-10.1256,-36.1756,74.57,81,21,11.03,BR,1697407315
420,ad dawadimi,24.5077,44.3924,74.55,18,0,6.6,SA,1697407386
421,westport,41.1415,-73.3579,59.04,67,100,1.99,US,1697407212
422,peace river,56.2501,-117.286,52.11,81,75,5.75,CA,1697407333
423,erenhot,43.6475,111.9767,42.57,33,0,7.47,CN,1697407386
424,zmiyevka,52.6697,36.3739,51.06,86,100,6.2,RU,1697407387
425,raduzhny,62.0961,77.475,32.72,94,44,4.36,RU,1697407387
426,mogadishu,2.0371,45.3438,79.2,87,23,11.99,SO,1697407135
427,zamberk,50.086,16.4674,40.84,89,39,10.65,CZ,1697407387
428,jiaojiang,28.6803,121.4428,62.01,81,2,4.63,CN,1697407388
429,buka,40.8108,69.1986,49.55,40,36,3.56,UZ,1697407388
430,kapa'a,22.0752,-159.319,85.1,56,96,5.01,US,1697407388
431,berbera,10.4396,45.0143,82.72,81,5,8.72,SO,1697407388
432,susanville,40.4163,-120.653,71.82,32,0,4.61,US,1697407225
433,acapulco de juarez,16.8634,-99.8901,83.53,83,100,7.81,MX,1697407366
434,baixa grande,-11.9597,-40.1681,77.13,51,25,15.52,BR,1697407389
435,mahajanga,-15.7167,46.3167,80.62,83,20,4.61,MG,1697407389
436,nemuro,43.3236,145.575,58.17,70,100,12.41,JP,1697407389
437,eagle point,42.4726,-122.8028,75.88,48,0,8.05,US,1697407390
438,taro,-8.3862,115.28,71.6,89,64,0.94,ID,1697407390
439,mananjary,-21.2167,48.3333,74.1,95,20,7.29,MG,1697407390
440,little falls,40.869,-74.2082,59.79,60,75,10.36,US,1697407106
441,sitka,57.0531,-135.33,52.99,86,89,4.36,US,1697407352
442,sabang,5.8933,95.3214,81.07,79,100,17.81,ID,1697407391
443,fort wellington,6.4,-57.6,81.99,76,7,9.91,GY,1697407391
444,san cristobal de las casas,16.75,-92.6333,61.11,85,65,3.74,MX,1697407199
445,christchurch,-43.5333,172.6333,63.41,43,56,8.05,NZ,1697407263
446,carandai,-20.9536,-43.8064,67.73,95,88,6.26,BR,1697407358
447,kudat,6.8837,116.8477,77.29,94,100,2.3,MY,1697407392
448,manismata,-2.4667,111.0333,75.11,97,100,2.73,ID,1697407392
449,inarajan village,13.2736,144.7484,85.39,90,96,4.36,GU,1697407392
450,paracuru,-3.41,-39.0306,81.1,80,99,13.78,BR,1697407393
451,aldan,58.6031,125.3894,16.2,98,56,1.99,RU,1697407393
452,cajuru,-21.2753,-47.3042,74.91,75,79,7.02,BR,1697407371
453,skeldon,5.8833,-57.1333,81.68,76,60,8.48,GY,1697407393
454,egilsstadir,65.2653,-14.3948,31.91,93,100,2.3,IS,1697407394
455,sinan,34.8262,126.1086,64.51,64,1,18.97,KR,1697407394
456,carnarvon,-24.8667,113.6333,78.42,28,4,12.73,AU,1697407394
457,moog,8.6011,124.4658,77.94,82,42,4.54,PH,1697407394
458,artova,40.1158,36.3001,51.66,93,100,2.04,TR,1697407395
459,korenevo,55.6719,38.0078,49.26,97,0,4.47,RU,1697407395
460,bandundu,-3.3167,17.3667,74.28,80,100,0.22,CD,1697407395
461,penzance,50.1186,-5.5371,53.76,66,100,18.45,GB,1697407395
462,ebon,4.582,168.6964,83.71,73,89,9.62,MH,1697407395
463,jakobstad,63.6749,22.7026,42.93,65,100,21.9,FI,1697407396
464,antalaha,-14.9003,50.2788,72.59,93,88,4.97,MG,1697407396
465,leh,34.1667,77.5833,36.41,60,72,3.8,IN,1697407396
466,nova vicosa,-17.8919,-39.3719,75.88,81,8,7.54,BR,1697407396
467,taiynsha,53.8478,69.7639,45.05,63,76,12.19,KZ,1697407397
468,castillos,-34.1667,-53.8333,59.18,82,97,13.71,UY,1697407162
469,toliara,-23.35,43.6667,71.69,79,18,6.69,MG,1697407397
470,lishui,28.4604,119.9103,57.81,93,0,0.96,CN,1697407397
471,orrville,40.8437,-81.764,52.36,77,100,8.05,US,1697407179
472,guerrero negro,27.9769,-114.0611,81.19,46,0,11.99,MX,1697407398
473,cerritos,33.8583,-118.0648,97.9,45,0,8.05,US,1697407398
474,tsiombe,-25.3,45.4833,66.36,85,20,3.42,MG,1697407398
475,menaka,15.9182,2.4022,92.1,15,3,7.45,ML,1697407398
476,dover,39.1582,-75.5244,58.06,68,75,11.83,US,1697407262
477,kourou,5.1552,-52.6478,84.25,79,74,12.08,GF,1697407399
478,paoy paet,13.6561,102.5625,73.44,91,91,5.91,KH,1697407399
479,labrador city,52.9463,-66.9114,40.91,87,100,17.27,CA,1697407208
480,tolanaro,-25.0319,46.9987,73.47,83,75,9.22,MG,1697407399
481,irece,-11.3042,-41.8558,80.04,39,23,13.73,BR,1697407400
482,ipira,-12.1583,-39.7372,75.52,58,13,17.58,BR,1697407400
483,margate,51.3813,1.3862,48.74,59,71,6.06,GB,1697407400
484,gongzhuling,43.5008,124.8198,35.71,39,0,4.14,CN,1697407400
485,katabu,-4.9333,122.5167,74.77,86,48,3.87,ID,1697407400
486,balykshi,47.0667,51.8667,51.8,76,0,13.42,KZ,1697407401
487,sao vicente,-23.9631,-46.3919,73.58,67,100,3.0,BR,1697407328
488,whangarei,-35.7317,174.3239,67.44,56,43,2.77,NZ,1697407401
489,vincennes,48.85,2.4333,48.92,67,0,9.22,FR,1697407401
490,hajo,26.25,91.5333,70.5,92,3,2.8,IN,1697407402
491,mitu,1.1983,-70.1733,79.29,78,80,3.4,CO,1697407402
492,san luis de la loma,17.2706,-100.8939,83.07,84,100,3.2,MX,1697407402
493,yokadouma,3.5167,15.05,67.66,99,100,0.31,CM,1697407402
494,anchorage,61.2181,-149.9003,49.64,84,75,9.22,US,1697407201
495,gaiman,-43.2897,-65.4929,57.16,41,53,15.3,AR,1697407403
496,emet,39.343,29.2585,54.79,60,0,3.02,TR,1697407403
497,undurkhaan,47.3194,110.6556,38.12,43,9,9.01,MN,1697407403
498,monrovia,6.3005,-10.7969,76.77,88,100,7.49,LR,1697407404
499,salalah,17.0151,54.0924,75.29,82,100,2.33,OM,1697407404
500,slave lake,55.2834,-114.769,49.98,66,100,2.3,CA,1697407404
501,svetlyy,54.675,20.1347,50.97,66,98,13.69,RU,1697407404
502,belmonte,-15.8631,-38.8828,74.89,82,7,7.25,BR,1697407404
503,luwuk,-0.9516,122.7875,77.27,84,12,4.76,ID,1697407405
504,paris,48.8534,2.3488,49.14,67,0,9.22,FR,1697407174
505,ndibene dahra,15.3338,-15.4766,86.09,38,85,6.87,SN,1697407405
506,saint-alban,43.7,1.4167,57.52,51,0,4.61,FR,1697407405
507,as sulayyil,20.4607,45.5779,80.85,19,8,5.26,SA,1697407406
508,sabha,27.0377,14.4283,74.66,20,0,6.51,LY,1697407406
509,monteros,-27.1674,-65.4983,88.74,22,10,5.86,AR,1697407406
510,east moriches,40.8051,-72.7609,59.09,67,20,5.75,US,1697407406
511,midvagur,62.0511,-7.1939,47.23,93,100,11.5,FO,1697407407
512,baruun-urt,46.6806,113.2792,34.93,43,1,8.3,MN,1697407407
513,igrim,63.1906,64.4162,38.01,84,100,5.99,RU,1697407407
514,belaya kholunitsa,58.84,50.8528,52.27,94,100,9.1,RU,1697407407
515,dampit,-8.2116,112.7493,69.01,86,45,4.36,ID,1697407407
516,el alto,-4.2714,-81.2147,76.66,77,46,12.59,PE,1697407408
517,klaksvik,62.2266,-6.589,47.32,83,100,21.47,FO,1697407408
518,san fernando,15.0286,120.6898,78.53,92,98,3.8,PH,1697407408
519,dergachi,51.2328,48.7659,50.14,68,40,8.9,RU,1697407408
520,pacific grove,36.6177,-121.9166,80.55,75,0,5.75,US,1697407209
521,wad az zaki,14.4619,32.2065,92.03,17,34,12.66,SD,1697407409
522,brigantine,39.4101,-74.3646,60.03,67,20,11.5,US,1697407409
523,moscow,55.7522,37.6156,48.38,87,100,7.4,RU,1697407220
524,san antonio de pale,-1.4014,5.6325,78.84,82,96,14.76,GQ,1697407409
525,kismayo,-0.3582,42.5454,78.49,88,63,9.57,SO,1697407410
526,tillaberi,14.2117,1.4531,92.05,19,10,9.15,NE,1697407410
527,springfield,37.2153,-93.2982,55.53,70,76,11.99,US,1697407203
528,sandnessjoen,66.0217,12.6316,42.91,81,75,18.41,NO,1697407384
529,fort mcmurray,56.7268,-111.381,54.99,50,40,8.05,CA,1697407208
530,port augusta,-32.5,137.7667,58.17,72,21,16.6,AU,1697407411
531,cacapava do sul,-30.5122,-53.4914,62.85,93,54,6.44,BR,1697407229
532,monze,-16.2833,27.4833,80.58,39,93,2.95,ZM,1697407411
533,darlington,54.5243,-1.5504,43.68,78,78,4.43,GB,1697407412
534,kupang,-10.1667,123.5833,72.18,78,20,3.44,ID,1697407412
535,valledupar,10.4631,-73.2532,91.09,58,40,5.75,CO,1697407255
536,borujen,31.9652,51.2873,55.98,35,4,2.62,IR,1697407413
537,belyy yar,53.6039,91.3903,42.69,75,0,8.95,RU,1697407413
538,turochak,52.2576,87.1224,40.59,94,99,3.6,RU,1697407413
539,kolonia town,6.964,158.206,84.31,84,75,3.44,FM,1697407413
540,empalme,27.9667,-110.8167,104.34,49,0,16.11,MX,1697407414
541,yerofey pavlovich,53.9667,121.9667,26.24,62,12,3.02,RU,1697407414
542,choa saidan shah,32.7201,72.9849,71.37,44,100,6.17,PK,1697407414
543,tralee,52.2704,-9.7026,44.02,84,100,6.22,IE,1697407414
544,manokwari,-0.8667,134.0833,79.88,74,99,2.42,ID,1697407414
545,yatou,37.15,122.3833,55.78,41,0,11.52,CN,1697407415
546,xiongzhou,25.1167,114.3,60.67,83,68,1.86,CN,1697407415
547,charo,19.75,-101.05,76.12,44,75,11.5,MX,1697407415
548,mount isa,-20.7333,139.5,76.77,20,18,17.27,AU,1697407415
549,al jawf,29.5,38.75,66.38,45,0,7.67,SA,1697407416
550,yuzhno-kurilsk,44.0306,145.8556,57.38,69,100,9.06,RU,1697407416
551,safi,32.1667,-8.8333,71.17,54,86,6.96,MA,1697407416
552,aginskoye,51.1,114.53,31.95,59,70,4.83,RU,1697407417
553,stulpicani,47.4667,25.7667,41.4,98,100,3.87,RO,1697407417
554,cole harbour,44.6724,-63.4751,54.97,83,100,1.01,CA,1697407417
555,urangan,-25.3,152.9,73.08,73,27,13.98,AU,1697407417
556,usinsk,65.9939,57.5281,36.07,99,100,15.99,RU,1697407418
557,almeirim,-1.5233,-52.5817,85.1,54,60,3.06,BR,1697407418
558,tura,25.5198,90.2201,67.62,87,12,3.6,IN,1697407418
559,murmansk,68.0,34.0,30.81,99,100,5.61,RU,1697407418
560,floro,61.5996,5.0328,41.97,70,100,12.66,NO,1697407419
561,marovoay,-16.1,46.6333,76.93,88,98,2.48,MG,1697407419
562,ismailia,30.6043,32.2723,70.3,69,0,6.38,EG,1697407419
563,yumbel,-37.0833,-72.5667,62.83,54,48,10.13,CL,1697407419
564,santyoku,37.4406,129.1708,59.07,75,15,9.35,KR,1697407420
565,ilo,-17.6394,-71.3375,65.39,79,9,5.26,PE,1697407420
566,kirillov,59.863,38.3813,45.99,79,94,12.75,RU,1697407420
567,maintirano,-18.0667,44.0167,78.03,85,7,3.4,MG,1697407420
568,kingston,17.997,-76.7936,88.75,75,20,8.05,JM,1697407195
569,malvan,16.0667,73.4667,78.85,86,39,3.96,IN,1697407421
570,glenfield park,-35.1372,147.334,55.6,94,90,13.29,AU,1697407421
571,alindao,5.0267,21.2088,68.9,99,96,2.51,CF,1697407421
572,mandan,46.8267,-100.8896,58.8,51,0,4.61,US,1697407421
573,ardakan,32.31,54.0175,66.49,32,8,4.97,IR,1697407422
574,taoudenni,22.6783,-3.9836,86.61,16,0,8.03,ML,1697407422
575,sebezh,56.2955,28.4654,45.5,79,85,10.27,RU,1697407422
576,mount gambier,-37.8333,140.7667,49.86,64,76,13.38,AU,1697407422
577,ipis,9.9675,-84.0133,72.41,69,75,4.61,CR,1697407173
578,chibougamau,49.9168,-74.3659,55.02,67,20,13.8,CA,1697407423
579,camiri,-20.05,-63.5167,96.58,26,10,6.91,BO,1697407423
580,minas de marcona,-15.2119,-75.1103,62.78,70,18,11.99,PE,1697407423
581,cockburn town,21.4612,-71.1419,85.96,66,40,8.05,TC,1697407423
582,saldanha,-33.0117,17.9442,62.65,81,0,11.23,ZA,1697407424
583,gostynin,52.4294,19.4619,43.84,71,38,15.75,PL,1697407145
