City_ID,City,Lat,Lng,Max Temp,Humidity,Cloudiness,Wind Speed,Country,Date
0,puerto natales,-51.7236,-72.4875,38.44,96,30,6.91,CL,1697239834
1,kapa'a,22.0752,-159.319,86.47,62,0,10.36,US,1697239834
2,albany,42.6001,-73.9662,55.81,65,33,4.79,US,1697239834
3,aasiaat,68.7098,-52.8699,29.61,99,100,12.82,GL,1697239835
4,ribeira grande,38.5167,-28.7,65.77,94,100,15.01,PT,1697239835
5,incline village,39.2513,-119.973,63.45,34,75,11.01,US,1697239835
6,stanley,54.868,-1.6985,45.28,78,1,17.98,GB,1697239835
7,adamstown,-25.066,-130.1015,70.12,82,100,15.66,PN,1697239836
8,waitangi,-43.9535,-176.5597,54.28,91,39,30.96,NZ,1697239836
9,keflavik,64.0049,-22.5624,32.43,64,75,8.05,IS,1697239836
10,baharly,38.4362,57.4316,54.3,35,1,10.54,TM,1697239836
11,noumea,-22.2763,166.4572,82.38,99,19,9.17,NC,1697239809
12,punta arenas,-53.15,-70.9167,46.51,66,20,20.71,CL,1697239790
13,port saint john's,-31.6229,29.5448,63.07,85,80,15.97,ZA,1697239837
14,saudarkrokur,65.7461,-19.6394,26.15,85,100,2.8,IS,1697239837
15,tsiombe,-25.3,45.4833,73.06,92,71,5.1,MG,1697239837
16,uturoa,-16.7333,-151.4333,77.31,82,22,16.6,PF,1697239837
17,fort bragg,35.139,-79.006,73.98,73,100,0.0,US,1697239838
18,samarinda,-0.5,117.15,78.91,88,98,2.15,ID,1697239838
19,st. john's,47.5649,-52.7093,53.67,98,100,12.66,CA,1697239590
20,nar'yan-mar,67.6713,53.087,34.11,76,99,8.99,RU,1697239838
21,puerto ayora,-0.7393,-90.3518,76.69,81,76,10.58,EC,1697239839
22,udachny,66.4167,112.4,14.45,85,50,3.91,RU,1697239839
23,markovo,57.3206,107.0881,34.29,88,97,10.04,RU,1697239839
24,ancud,-41.8697,-73.8203,48.43,81,97,3.47,CL,1697239839
25,fortuna,40.5982,-124.1573,61.14,77,100,8.05,US,1697239840
26,broken hill,-31.95,141.4333,65.21,51,0,8.37,AU,1697239840
27,bredasdorp,-34.5322,20.0403,57.22,89,58,10.45,ZA,1697239840
28,zavolzh'ye,56.6428,43.3936,45.0,85,17,10.49,RU,1697239840
29,mbanza kongo,-6.267,14.2401,72.01,90,72,5.41,AO,1697239840
30,port-aux-francais,-49.35,70.2167,36.64,72,67,19.01,TF,1697239841
31,coronado,32.6859,-117.1831,80.08,73,75,8.05,US,1697239650
32,qaqortoq,60.7167,-46.0333,38.75,56,81,7.05,GL,1697239841
33,touros,-5.1989,-35.4608,78.67,82,6,16.96,BR,1697239542
34,dryden,49.7833,-92.7503,46.69,81,75,5.75,CA,1697239842
35,lihue,21.9789,-159.3672,86.74,61,0,10.36,US,1697239796
36,ingeniero jacobacci,-41.3427,-69.5448,57.61,34,9,6.62,AR,1697239842
37,amga,60.8953,131.9608,24.98,81,84,5.99,RU,1697239842
38,kirakira,-10.4544,161.9205,84.15,74,100,9.01,SB,1697239842
39,srednebelaya,50.6594,128.0106,48.04,61,34,7.36,RU,1697239843
40,grytviken,-54.2811,-36.5092,33.35,94,100,21.25,GS,1697239843
41,lebu,-37.6167,-73.65,50.22,84,67,19.06,CL,1697239843
42,rongelap,11.1635,166.8941,82.85,76,94,7.72,MH,1697239843
43,zholymbet,51.7433,71.7122,39.78,49,23,15.43,KZ,1697239843
44,iqaluit,63.7506,-68.5145,37.13,81,75,2.3,CA,1697239765
45,hawaiian paradise park,19.5933,-154.9731,85.51,76,20,9.22,US,1697239784
46,kualakapuas,-3.0091,114.3876,81.91,70,77,1.86,ID,1697239844
47,wailua homesteads,22.0669,-159.378,85.12,62,0,10.36,US,1697239844
48,kone,-21.0595,164.8658,81.57,59,22,3.62,NC,1697239845
49,papatowai,-46.5619,169.4708,50.74,90,87,10.0,NZ,1697239845
50,margate,51.3813,1.3862,52.88,78,73,8.01,GB,1697239845
51,fortaleza,-3.7227,-38.5247,81.21,78,75,11.5,BR,1697239798
52,hermanus,-34.4187,19.2345,58.08,89,74,14.23,ZA,1697239845
53,erenhot,43.6475,111.9767,48.69,32,0,7.94,CN,1697239846
54,kodiak,57.79,-152.4072,42.31,70,75,5.75,US,1697239846
55,hithadhoo,-0.6,73.0833,80.8,75,35,7.67,MV,1697239846
56,yellowknife,62.456,-114.3525,54.41,88,0,11.5,CA,1697239846
57,bhawanipatna,19.9,83.1667,71.73,79,24,3.02,IN,1697239847
58,westport,41.1415,-73.3579,59.56,69,0,5.75,US,1697239583
59,hami,42.8,93.45,60.73,29,0,6.31,CN,1697239847
60,nagqu,31.5,92.0,26.08,34,84,2.86,CN,1697239847
61,atafu village,-8.5421,-172.5159,83.48,76,99,24.16,TK,1697239847
62,indramayu,-6.3264,108.32,81.81,63,47,9.91,ID,1697239848
63,edinburgh of the seven seas,-37.0676,-12.3116,59.22,93,100,29.04,SH,1697239848
64,merizo village,13.2658,144.6691,84.38,89,99,11.74,GU,1697239848
65,ankang,32.68,109.0172,59.92,84,21,0.98,CN,1697239848
66,port alfred,-33.5906,26.891,58.17,98,88,1.99,ZA,1697239849
67,miyaly,48.8844,53.7836,47.89,75,100,11.45,KZ,1697239849
68,west island,-12.1568,96.8225,76.98,78,40,14.97,CC,1697239849
69,mulayjah,27.271,48.4242,82.8,27,0,7.38,SA,1697239849
70,moroni,-11.7022,43.2551,78.22,81,4,3.89,KM,1697239849
71,lloydminster,53.2835,-110.0016,52.02,46,20,17.27,CA,1697239599
72,north bend,43.4065,-124.2243,57.25,94,100,6.91,US,1697239850
73,kruisfontein,-34.0033,24.7314,53.1,91,65,3.09,ZA,1697239850
74,ebon,4.582,168.6964,84.04,70,63,5.48,MH,1697239851
75,sinop,41.7711,34.8709,52.5,61,1,3.91,TR,1697239851
76,khirkiyan,22.1667,76.85,72.25,64,1,2.06,IN,1697239851
77,port mathurin,-19.6833,63.4167,72.25,65,50,12.64,MU,1697239851
78,freetown,8.484,-13.2299,78.6,85,100,6.58,SL,1697239852
79,kayangel,8.0823,134.7173,83.05,79,92,12.44,PW,1697239852
80,manado,1.487,124.8455,79.57,78,20,1.14,ID,1697239852
81,tralee,52.2704,-9.7026,50.2,70,42,16.24,IE,1697239617
82,wetteren,50.9934,3.8721,66.6,86,100,17.27,BE,1697239853
83,bonthe,7.5264,-12.505,78.24,87,81,1.81,SL,1697239853
84,howrah,22.5892,88.3103,80.6,78,20,0.0,IN,1697239853
85,bethel,41.3712,-73.414,55.71,75,0,0.0,US,1697239696
86,hampton bays,40.869,-72.5176,60.85,67,14,12.68,US,1697239854
87,smithers,54.7804,-127.1743,57.52,54,40,8.05,CA,1697239810
88,bilibino,68.0546,166.4372,19.96,92,100,2.08,RU,1697239854
89,skagen,57.7209,10.5839,54.37,67,99,28.01,DK,1697239854
90,thames,-37.1333,175.5333,62.17,62,35,8.99,NZ,1697239587
91,college,64.8569,-147.8028,38.44,73,20,4.61,US,1697239855
92,vorkuta,67.5,64.0,30.33,94,100,3.09,RU,1697239855
93,baukau,51.5526,7.2042,67.86,76,100,4.0,DE,1697239855
94,blackmans bay,-43.0167,147.3167,57.33,75,92,15.46,AU,1697239855
95,oruro,-17.9833,-67.15,58.55,43,94,13.38,BO,1697239855
96,holualoa,19.6228,-155.9522,78.64,77,75,10.36,US,1697239856
97,utrik,11.2278,169.8474,82.74,77,85,8.43,MH,1697239856
98,kutulik,53.3508,102.7839,35.96,77,36,7.83,RU,1697239856
99,port elizabeth,-33.918,25.5701,58.32,96,75,3.44,ZA,1697239680
100,rizhao,35.4275,119.4553,63.75,58,1,4.43,CN,1697239857
101,sambava,-14.2667,50.1667,74.98,92,82,1.45,MG,1697239857
102,hsinchu,24.8036,120.9686,75.88,76,51,1.99,TW,1697239857
103,susuman,62.7833,148.1667,9.99,84,96,1.99,RU,1697239857
104,port macquarie,-31.4333,152.9167,72.9,41,0,4.92,AU,1697239858
105,constantia,44.1833,28.65,57.88,61,26,3.58,RO,1697239858
106,mayna,54.1135,47.6231,46.83,92,5,9.31,RU,1697239858
107,hamilton,39.1834,-84.5333,75.29,62,75,8.05,US,1697239858
108,nuku'alofa,-21.1333,-175.2,79.14,61,20,11.5,TO,1697239858
109,ivdel',60.6911,60.4206,45.19,83,100,7.0,RU,1697239859
110,pont rouge,48.8833,-72.0825,50.29,89,88,5.86,CA,1697239859
111,saldanha,-33.0117,17.9442,51.85,78,100,6.22,ZA,1697239859
112,praya,14.9215,-23.5087,81.14,83,20,4.61,CV,1697239859
113,olonkinbyen,70.9221,-8.7187,28.42,83,100,23.89,SJ,1697239860
114,rudnichnyy,59.617,52.4703,42.91,89,92,11.9,RU,1697239860
115,ushuaia,-54.8,-68.3,44.26,66,75,32.01,AR,1697239860
116,jamestown,42.097,-79.2353,52.02,73,100,6.91,US,1697239852
117,phimai,15.2232,102.4947,74.23,88,73,4.63,TH,1697239860
118,golfito,8.639,-83.166,77.92,93,100,3.2,CR,1697239861
119,oranjemund,-28.55,16.4333,57.56,87,0,12.86,NA,1697239861
120,malango,-2.9627,119.9001,75.63,72,16,2.13,ID,1697239861
121,gazojak,41.1875,61.4036,48.04,44,0,7.87,TM,1697239861
122,yaya,56.206,86.44,39.74,63,99,16.04,RU,1697239862
123,haiku-pauwela,20.9219,-156.3051,82.26,75,40,19.57,US,1697239862
124,mizan teferi,6.9833,35.5833,62.11,98,99,2.82,ET,1697239862
125,carnarvon,-24.8667,113.6333,80.01,44,52,11.39,AU,1697239862
126,tiksi,71.6872,128.8694,21.58,97,100,4.9,RU,1697239863
127,bambanglipuro,-7.95,110.2833,79.11,76,69,7.78,ID,1697239863
128,yaren,-0.5472,166.916,84.81,70,12,8.75,NR,1697239863
129,tolanaro,-25.0319,46.9987,73.47,94,0,6.91,MG,1697239863
130,georgetown,5.4112,100.3354,80.53,89,20,5.01,MY,1697239741
131,yarmouth,41.7057,-70.2286,60.85,63,75,23.0,US,1697239581
132,palo santo,-25.5633,-59.3378,65.48,42,0,9.33,AR,1697239864
133,kigoma,-4.8769,29.6267,78.96,66,55,4.03,TZ,1697239864
134,villa ojo de agua,-29.5,-63.6938,56.82,33,0,8.5,AR,1697239864
135,hotan,37.0997,79.9269,55.89,23,34,2.3,CN,1697239864
136,vernon,50.2581,-119.2691,66.29,63,55,2.3,CA,1697239807
137,san patricio,28.017,-97.5169,89.55,62,47,4.97,US,1697239865
138,usinsk,65.9939,57.5281,30.07,98,100,5.01,RU,1697239865
139,talara,-4.5772,-81.2719,75.96,69,0,3.44,PE,1697239598
140,chulakkurgan,43.765,69.1814,39.72,60,22,4.14,KZ,1697239866
141,taoudenni,22.6783,-3.9836,84.22,15,0,9.22,ML,1697239866
142,guerrero negro,27.9769,-114.0611,70.56,62,6,13.58,MX,1697239830
143,guiljungan,9.9805,122.6742,82.0,77,74,3.33,PH,1697239866
144,thompson,55.7435,-97.8558,57.36,58,0,4.61,CA,1697239867
145,badger,64.8,-147.5333,38.35,76,40,4.61,US,1697239867
146,whitehorse,60.7161,-135.0538,51.03,72,100,10.36,CA,1697239867
147,anadyr,64.75,177.4833,36.1,87,75,0.0,RU,1697239867
148,mount pearl,47.5166,-52.7813,52.84,98,100,12.66,CA,1697239868
149,bam,29.106,58.357,73.4,31,2,2.93,IR,1697239779
150,mus,39.0,41.75,50.54,37,0,2.42,TR,1697239868
151,manali,13.1667,80.2667,81.07,85,36,6.53,IN,1697239868
152,nizhneangarsk,55.7833,109.55,37.99,72,39,10.0,RU,1697239869
153,suoyarvi,62.0833,32.35,36.93,98,100,5.55,RU,1697239869
154,kuqa,41.7278,82.9364,59.95,37,99,3.96,CN,1697239869
155,petropavlovsk-kamchatsky,53.0452,158.6483,37.99,73,75,15.01,RU,1697239834
156,christchurch,-43.5333,172.6333,64.6,45,0,41.43,NZ,1697239627
157,gadzhiyevo,69.2551,33.3362,32.83,82,18,6.24,RU,1697239870
158,envira,-7.3,-70.2167,76.28,87,75,0.18,BR,1697239870
159,tura,25.5198,90.2201,68.52,83,0,2.42,IN,1697239870
160,margaret river,-33.95,115.0667,59.29,67,9,10.65,AU,1697239870
161,bozeman,45.6796,-111.0386,50.68,75,75,13.8,US,1697239573
162,mahibadhoo,3.7833,72.9667,81.7,72,82,12.86,MV,1697239871
163,pouzauges,46.7794,-0.8362,61.18,89,90,10.87,FR,1697239871
164,axim,4.8699,-2.2405,77.07,92,87,6.29,GH,1697239871
165,dunedin,-45.8742,170.5036,58.98,61,76,10.69,NZ,1697239871
166,mount isa,-20.7333,139.5,76.77,15,12,14.97,AU,1697239872
167,longyearbyen,78.2186,15.6401,28.24,69,20,12.66,SJ,1697239872
168,bazarnyy syzgan,53.7512,46.7535,38.5,94,3,7.25,RU,1697239872
169,weno,7.4515,151.8468,80.55,89,100,5.75,FM,1697239872
170,kuching,1.55,110.3333,84.02,90,20,2.3,MY,1697239873
171,tuy hoa,13.0833,109.3,78.01,92,97,2.59,VN,1697239873
172,tortona,44.8978,8.8637,65.79,86,11,4.54,IT,1697239873
173,kenai,60.5544,-151.2583,43.09,86,100,5.75,US,1697239873
174,mombetsu,44.3525,143.3525,62.46,63,35,11.05,JP,1697239874
175,seydi,39.4816,62.9137,45.93,57,0,8.95,TM,1697239874
176,bangor,54.6534,-5.669,47.71,78,26,6.91,GB,1697239874
177,vilyuchinsk,52.9306,158.4028,39.47,91,100,2.75,RU,1697239874
178,nadym,65.5333,72.5167,36.45,99,100,11.05,RU,1697239874
179,stony plain,53.5334,-114.0021,54.79,64,100,13.8,CA,1697239875
180,tual,-5.6667,132.75,80.76,84,88,12.97,ID,1697239875
181,soran,49.78,72.8506,28.89,41,58,5.97,KZ,1697239875
182,enewetak,11.3474,162.3373,82.92,72,64,7.18,MH,1697239875
183,medina de pomar,42.9294,-3.488,64.53,67,99,1.9,ES,1697239876
184,puerto colombia,10.9878,-74.9547,86.09,79,73,13.73,CO,1697239876
185,san antonio de pale,-1.4014,5.6325,78.19,82,97,6.73,GQ,1697239876
186,carolina,18.3808,-65.9574,85.96,80,20,5.75,PR,1697239876
187,cabo san lucas,22.8909,-109.9124,85.3,65,0,14.97,MX,1697239820
188,lompoc,34.6391,-120.4579,73.62,72,40,6.91,US,1697239877
189,invercargill,-46.4,168.35,51.03,95,100,11.01,NZ,1697239877
190,mossel bay,-34.1831,22.146,57.13,84,41,10.45,ZA,1697239877
191,jinchang,38.4953,102.1739,51.13,37,1,6.82,CN,1697239878
192,ilulissat,69.2167,-51.1,32.02,93,100,12.66,GL,1697239878
193,tumut,-35.3,148.2167,61.07,61,84,10.96,AU,1697239878
194,vorgashor,67.5833,63.95,30.25,88,100,2.59,RU,1697239878
195,tolbazy,54.0241,55.8825,42.57,82,95,14.74,RU,1697239878
196,sabha,27.0377,14.4283,73.11,29,0,8.66,LY,1697239879
197,alice springs,-23.7,133.8833,67.55,22,0,9.22,AU,1697239815
198,pallasovka,50.05,46.8833,47.79,89,68,6.76,RU,1697239879
199,uliastay,47.7417,96.8444,40.86,36,56,4.12,MN,1697239879
200,poso,-1.3959,120.7524,84.6,61,58,3.31,ID,1697239879
201,molochnoye,59.2917,39.6787,39.33,82,61,8.99,RU,1697239880
202,plouzane,48.3833,-4.6167,55.58,67,100,13.8,FR,1697239818
203,yuzhno-kurilsk,44.0306,145.8556,55.38,82,0,1.95,RU,1697239880
204,lata,40.1629,-8.3327,68.92,87,98,3.89,PT,1697239880
205,pitimbu,-7.4706,-34.8086,79.39,80,6,13.85,BR,1697239881
206,gisborne,-38.6533,178.0042,68.22,46,1,12.73,NZ,1697239867
207,imbituba,-28.24,-48.6703,64.9,80,100,3.85,BR,1697239881
208,urzhum,57.1141,49.9996,39.79,80,37,13.82,RU,1697239881
209,benghazi,32.1167,20.0667,72.41,66,0,2.48,LY,1697239881
210,mul,20.0667,79.6667,71.94,71,1,2.15,IN,1697239882
211,vicuna mackenna,-33.9197,-64.3922,58.89,24,15,14.12,AR,1697239882
212,fale old settlement,-9.3852,-171.2468,83.32,77,100,22.79,TK,1697239882
213,brokopondo,4.75,-55.1667,80.64,80,72,11.99,SR,1697239882
214,tazovsky,67.4667,78.7,33.28,98,100,11.61,RU,1697239883
215,kingston,17.997,-76.7936,86.95,80,20,17.27,JM,1697239883
216,al ghayzah,16.2079,52.176,76.96,82,3,1.07,YE,1697239883
217,puerto armuelles,8.2833,-82.8667,81.09,74,97,5.01,PA,1697239883
218,altus,34.6381,-99.334,72.88,26,0,18.41,US,1697239884
219,san,13.3034,-4.8956,81.52,55,92,7.76,ML,1697239884
220,isangel,-19.55,169.2667,73.78,85,100,8.52,VU,1697239884
221,isafjordur,66.0755,-23.124,27.27,75,72,9.89,IS,1697239884
222,tonnerre,47.8563,3.9737,67.14,66,100,22.79,FR,1697239885
223,kidal,18.4411,1.4078,85.57,14,0,12.1,ML,1697239885
224,coquimbo,-29.9533,-71.3436,59.88,75,81,4.36,CL,1697239613
225,yulinshi,38.2906,109.7494,53.1,38,0,5.97,CN,1697239885
226,conceicao da barra,-18.5933,-39.7322,77.02,83,100,11.61,BR,1697239602
227,fort st. john,56.2499,-120.8529,46.29,87,100,12.66,CA,1697239886
228,fort mcmurray,56.7268,-111.381,51.39,62,0,12.66,CA,1697239701
229,presidencia roque saenz pena,-26.7852,-60.4388,61.3,41,6,7.81,AR,1697239886
230,ulsteinvik,62.3432,5.8487,49.75,79,97,10.0,NO,1697239886
231,hilo,19.7297,-155.09,85.73,74,20,9.22,US,1697239887
232,arraial do cabo,-22.9661,-42.0278,70.68,90,100,13.04,BR,1697239887
233,iskateley,67.6803,53.1512,34.02,76,99,8.99,RU,1697239887
234,tumbes,-3.5667,-80.4414,76.95,83,75,4.61,PE,1697239887
235,marsa alam,25.0757,34.8918,80.13,53,0,16.75,EG,1697239888
236,forster,-32.1667,152.5167,73.29,43,0,1.23,AU,1697239888
237,saipan,15.1355,145.701,83.1,89,75,4.61,MP,1697239888
238,talnakh,69.4865,88.3972,31.21,95,98,6.71,RU,1697239888
239,camayenne,9.535,-13.6878,80.69,94,75,4.61,GN,1697239888
240,castillos,-34.1667,-53.8333,45.64,71,11,4.61,UY,1697239889
241,bom conselho,-9.1697,-36.6797,68.05,88,21,11.65,BR,1697239889
242,flying fish cove,-10.4217,105.6791,76.68,94,100,10.36,CX,1697239590
243,vila franca do campo,37.7167,-25.4333,72.88,99,100,16.2,PT,1697239889
244,cidreira,-30.1811,-50.2056,58.95,68,87,8.01,BR,1697239889
245,kikwit,-5.041,18.8162,72.57,90,30,0.92,CD,1697239890
246,mirny,62.5353,113.9611,23.23,92,99,4.0,RU,1697239890
247,lerwick,60.1545,-1.1494,46.4,85,95,43.08,GB,1697239890
248,canico,32.6333,-16.85,83.12,78,20,3.44,PT,1697239891
249,bikenibeu village,1.3673,173.1241,87.76,70,20,4.61,KI,1697239891
250,ta`u,-14.2336,-169.5144,80.33,79,81,19.8,AS,1697239891
251,tazacorte,28.629,-17.9293,82.15,24,0,8.99,ES,1697239891
252,nuuk,64.1835,-51.7216,41.61,65,75,25.32,GL,1697239892
253,ljusdal,61.8288,16.0913,43.0,98,100,3.58,SE,1697239892
254,lakatoro,-16.0999,167.4164,82.67,65,95,8.61,VU,1697239892
255,agadez,19.75,10.25,77.97,22,2,8.9,NE,1697239892
256,belyy yar,53.6039,91.3903,28.29,86,0,2.24,RU,1697239893
257,kolwezi,-10.7148,25.4667,65.44,80,100,0.58,CD,1697239893
258,sinan,34.8262,126.1086,59.11,69,33,5.59,KR,1697239893
259,khorixas,-20.3667,14.9667,65.28,26,65,3.36,NA,1697239893
260,codrington,-38.2667,141.9667,56.28,74,100,17.78,AU,1697239894
261,kuala terengganu,5.3302,103.1408,78.75,94,20,1.14,MY,1697239894
262,antsiranana,-12.2787,49.2917,74.91,90,84,8.81,MG,1697239894
263,trincomalee,8.5711,81.2335,77.61,86,74,8.08,LK,1697239894
264,gokwe,-18.2048,28.9349,75.25,38,40,7.11,ZW,1697239895
265,pacific grove,36.6177,-121.9166,71.55,76,40,12.66,US,1697239620
266,carbonear,47.7332,-53.2148,54.14,96,100,11.16,CA,1697239895
267,ust'-uda,54.1742,103.0304,40.78,66,83,20.0,RU,1697239895
268,dudinka,69.4058,86.1778,34.68,93,98,15.01,RU,1697239895
269,tamandare,-8.7597,-35.1047,77.22,84,7,9.26,BR,1697239896
270,qarazhal,48.0078,70.7903,43.84,39,100,8.21,KZ,1697239896
271,champerico,14.3,-91.9167,84.74,84,45,6.51,GT,1697239896
272,durres,41.3231,19.4414,57.38,77,4,2.26,AL,1697239896
273,zabaykal'sk,49.6333,117.3167,49.42,42,36,17.38,RU,1697239897
274,namibe,-15.1961,12.1522,65.8,80,18,5.91,AO,1697239897
275,island harbour,50.724,-1.2758,51.01,86,48,5.01,GB,1697239897
276,klaksvik,62.2266,-6.589,41.92,92,95,48.97,FO,1697239897
277,newbiggin-by-the-sea,55.1853,-1.5147,46.99,79,0,10.36,GB,1697239898
278,port moresby,-9.4431,147.1797,82.53,73,46,9.55,PG,1697239835
279,east london,-33.0153,27.9116,61.57,83,98,15.48,ZA,1697239898
280,alofi,-19.0595,-169.9187,82.29,69,87,11.5,NU,1697239898
281,slave lake,55.2834,-114.769,48.18,71,0,11.5,CA,1697239896
282,lobujya,27.95,86.8167,20.3,35,1,5.68,NP,1697239899
283,saint-pierre,-21.3393,55.4781,71.28,78,6,5.75,RE,1697239899
284,el abiodh sidi cheikh,32.893,0.5484,64.17,34,0,5.57,DZ,1697239899
285,baardheere,2.3446,42.2764,79.95,72,22,10.36,SO,1697239899
286,wamba,8.9333,8.6,75.22,83,50,2.84,NG,1697239899
287,chos malal,-37.3781,-70.2709,62.92,26,99,4.54,AR,1697239900
288,ballina,-28.8667,153.5667,70.92,57,12,4.85,AU,1697239900
289,bandarbeyla,9.4942,50.8122,78.48,89,18,0.76,SO,1697239900
290,barth,54.3635,12.7249,65.05,87,100,29.44,DE,1697239900
291,prineville,44.2999,-120.8345,68.45,31,0,10.36,US,1697239900
292,al hasakah,36.5024,40.7477,73.17,38,0,7.18,SY,1697239901
293,puerto baquerizo moreno,-0.9,-89.6,75.72,82,92,10.6,EC,1697239901
294,nemuro,43.3236,145.575,59.72,71,0,2.93,JP,1697239901
295,bogandinskiy,56.8937,65.8938,44.87,76,99,13.06,RU,1697239901
296,egilsstadir,65.2653,-14.3948,30.11,86,75,12.66,IS,1697239902
297,el granada,37.5027,-122.4694,76.05,67,0,18.41,US,1697239902
298,ust-nera,64.5667,143.2,10.22,95,100,5.01,RU,1697239902
299,bodaybo,57.8506,114.1933,38.48,83,100,13.0,RU,1697239902
300,chapayevsk,52.9771,49.7086,40.89,91,3,7.72,RU,1697239902
301,dhidhdhoo,6.8833,73.1,79.21,83,100,8.16,MV,1697239903
302,masterton,-40.9597,175.6575,52.88,76,93,13.4,NZ,1697239903
303,usogorsk,63.4106,48.6872,36.66,96,100,10.8,RU,1697239903
304,hasaki,35.7333,140.8333,63.28,50,29,5.79,JP,1697239904
305,bria,6.5423,21.9863,70.38,96,98,0.36,CF,1697239904
306,miles city,46.4083,-105.8406,49.17,57,100,9.22,US,1697239904
307,callao,-12.0667,-77.15,71.73,77,100,6.91,PE,1697239904
308,labrador city,52.9463,-66.9114,42.71,93,100,8.05,CA,1697239904
309,bamboo flat,11.7,92.7167,77.09,100,20,2.3,IN,1697239905
310,troitsko-pechorsk,62.7084,56.1964,35.69,96,100,10.0,RU,1697239905
311,port lincoln,-34.7333,135.8667,59.61,71,100,13.51,AU,1697239905
312,necochea,-38.5473,-58.7368,45.52,83,4,9.78,AR,1697239905
313,sandnessjoen,66.0217,12.6316,45.12,75,96,19.08,NO,1697239905
314,manta,-0.95,-80.7333,76.78,78,75,14.97,EC,1697239906
315,santana,-0.0583,-51.1817,86.18,66,40,9.22,BR,1697239906
316,mejit,10.2753,170.8646,82.26,77,31,7.31,MH,1697239906
317,kharkhorin,47.1975,102.8238,43.74,36,51,8.61,MN,1697239906
318,ermoupolis,37.4423,24.9425,66.9,63,0,2.3,GR,1697239907
319,murmashi,68.8154,32.8115,32.41,92,75,4.47,RU,1697239907
320,newman,37.3138,-121.0208,84.54,35,69,1.99,US,1697239907
321,klyuchi,52.2667,79.1667,39.67,81,52,9.84,RU,1697239907
322,byelaazyorsk,52.4731,25.1784,60.58,79,98,14.34,BY,1697239907
323,bandundu,-3.3167,17.3667,74.14,93,93,2.28,CD,1697239908
324,police,53.5521,14.5718,68.67,77,100,5.01,PL,1697239908
325,lushun,38.8,121.2667,53.82,69,1,9.53,CN,1697239908
326,coro,11.4045,-69.6734,82.2,87,97,14.0,VE,1697239908
327,cabedelo,-6.9811,-34.8339,79.47,81,6,15.14,BR,1697239909
328,nanlong,31.3533,106.0631,61.63,91,8,2.1,CN,1697239909
329,jayapura,-2.5333,140.7,85.39,76,73,6.02,ID,1697239909
330,selfoss,63.9331,-20.9971,28.49,60,12,7.92,IS,1697239909
331,kyaikto,17.3,97.0167,76.84,92,77,1.97,MM,1697239909
332,hauterive,46.0901,3.4459,72.36,64,99,10.49,FR,1697239910
333,zahirabad,17.6833,77.6167,71.13,69,79,4.32,IN,1697239910
334,macapa,0.0389,-51.0664,85.98,66,40,9.22,BR,1697239910
335,ierapetra,35.01,25.7353,69.15,68,5,3.0,GR,1697239910
336,salinopolis,-0.6136,-47.3561,80.96,81,47,12.77,BR,1697239911
337,lyantor,61.6195,72.1555,41.09,91,100,17.6,RU,1697239911
338,mount gambier,-37.8333,140.7667,56.28,74,100,12.03,AU,1697239911
339,kungur,57.4368,56.9593,43.12,83,89,15.93,RU,1697239911
340,igarka,67.4667,86.5833,31.98,97,100,15.75,RU,1697239911
341,ternate,0.8,127.4,82.2,79,90,7.94,ID,1697239912
342,new norfolk,-42.7826,147.0587,58.5,89,100,11.12,AU,1697239912
343,flin flon,54.7682,-101.865,49.84,66,75,3.44,CA,1697239814
344,polyarnyy,69.1989,33.4478,33.1,82,18,5.99,RU,1697239912
345,labuan bajo,-8.4964,119.8877,82.99,61,6,1.14,ID,1697239912
346,mana,5.6592,-53.7767,81.93,82,83,11.07,GF,1697239913
347,shetpe,44.1667,52.1167,52.63,45,100,12.75,KZ,1697239913
348,ordubad,38.9059,46.0234,57.16,69,1,1.9,AZ,1697239913
349,aswan,24.0934,32.907,76.3,33,0,6.91,EG,1697239913
350,lexington,37.9887,-84.4777,74.98,54,67,11.48,US,1697239888
351,karratha,-20.7377,116.8463,83.82,22,0,9.4,AU,1697239717
352,severo-yeniseyskiy,60.3725,93.0408,33.58,90,100,8.99,RU,1697239914
353,bel ombre,-4.6167,55.4167,80.44,89,40,5.75,SC,1697239914
354,aykhal,66.0,111.5,18.07,73,65,3.0,RU,1697239914
355,cumana,10.4635,-64.1775,82.36,85,47,9.78,VE,1697239915
356,pontes e lacerda,-15.2261,-59.3353,81.88,49,24,4.47,BR,1697239915
357,laguna,38.421,-121.4238,80.17,36,0,9.22,US,1697239915
358,birjand,32.8663,59.2211,54.07,43,40,6.91,IR,1697239915
359,torgelow,53.6333,14.0167,66.36,83,98,5.99,DE,1697239916
360,land o' lakes,28.2189,-82.4576,82.94,84,25,1.99,US,1697239916
361,hadibu,12.65,54.0333,79.83,78,14,1.48,YE,1697239916
362,dondo,-19.6094,34.7431,72.12,65,13,2.51,MZ,1697239916
363,aljezur,37.3191,-8.8033,70.29,85,100,7.72,PT,1697239916
364,el haouaria,37.05,11.0144,68.02,69,0,2.89,TN,1697239917
365,chibougamau,49.9168,-74.3659,47.82,87,100,4.61,CA,1697239917
366,sitka,57.0531,-135.33,62.49,51,100,12.66,US,1697239917
367,borogontsy,62.6683,131.1683,21.29,73,88,3.0,RU,1697239917
368,lorengau,-2.0226,147.2712,84.97,70,39,6.85,PG,1697239918
369,ntungamo,-0.8833,29.65,64.99,88,48,2.93,UG,1697239918
370,nova vicosa,-17.8919,-39.3719,76.66,85,99,13.82,BR,1697239918
371,qarqaraly,49.4058,75.4742,41.68,78,100,4.7,KZ,1697239918
372,minas de marcona,-15.2119,-75.1103,59.77,77,58,10.87,PE,1697239919
373,magadan,59.5667,150.8,27.82,53,93,7.0,RU,1697239919
374,nova sintra,14.8667,-24.7167,76.55,81,80,6.73,CV,1697239919
375,ulladulla,-35.35,150.4667,68.77,41,6,10.83,AU,1697239919
376,geraldton,-28.7667,114.6,77.41,22,0,10.36,AU,1697239670
377,arno,60.1167,18.6333,52.79,90,100,17.74,SE,1697239920
378,vadso,70.0744,29.7487,29.28,93,40,12.66,NO,1697239920
379,santa cruz,-17.8,-63.1667,72.86,43,75,10.36,BO,1697239920
380,porbandar,21.6422,69.6093,79.59,80,3,7.54,IN,1697239920
381,ambatolampy,-19.3833,47.4167,62.74,78,78,2.35,MG,1697239920
382,al kharijah,25.4514,30.5464,73.36,35,0,8.34,EG,1697239921
383,lospalos,-8.5186,127.0025,80.22,67,35,9.71,TL,1697239921
384,sur,22.5667,59.5289,81.52,72,0,7.16,OM,1697239921
385,shamsabad,27.0167,78.1333,77.22,39,0,3.53,IN,1697239921
386,afif,23.9065,42.9172,71.85,10,0,5.01,SA,1697239921
387,lae,-6.7221,146.9847,85.51,68,83,3.2,PG,1697239922
388,kourou,5.1552,-52.6478,82.45,78,84,9.64,GF,1697239922
389,itoman,26.1247,127.6694,79.57,65,40,14.97,JP,1697239922
390,tucano,-10.9631,-38.7867,74.48,78,36,10.16,BR,1697239922
391,raholt,60.2667,11.1833,46.47,92,75,10.36,NO,1697239922
392,pocito,-31.6833,-68.5833,66.04,25,10,5.41,AR,1697239923
393,pangody,65.85,74.4859,34.77,99,100,11.27,RU,1697239923
394,ocean city,39.2776,-74.5746,60.01,76,0,1.01,US,1697239923
395,bengkulu,-3.8004,102.2655,75.47,88,93,2.93,ID,1697239923
396,pribram,49.6899,14.0104,62.91,67,7,6.96,CZ,1697239924
397,port douglas,-16.4833,145.4667,77.0,57,64,4.23,AU,1697239924
398,sao joao da barra,-21.6403,-41.0511,75.29,92,100,12.15,BR,1697239924
399,mukalla,14.5425,49.1242,78.91,77,0,4.59,YE,1697239924
400,statesboro,32.4488,-81.7832,71.13,96,100,3.44,US,1697239925
401,tanabe,33.7333,135.3667,69.01,73,75,3.44,JP,1697239925
402,san jose del guaviare,2.5729,-72.6459,73.62,98,100,3.83,CO,1697239925
403,toliara,-23.35,43.6667,72.64,88,82,3.6,MG,1697239925
404,rock springs,41.5875,-109.2029,50.23,52,75,3.44,US,1697239925
405,cody,44.5263,-109.0565,45.91,73,100,0.0,US,1697239926
406,adrar,20.5022,-10.0711,83.64,16,5,7.63,MR,1697239926
407,santa terezinha,-29.9002,-50.0904,59.52,67,94,5.7,BR,1697239926
408,tabou,4.423,-7.3528,76.93,92,37,4.56,CI,1697239926
409,afaahiti,-17.75,-149.2833,82.27,73,21,9.89,PF,1697239927
410,goseong,34.9763,128.3236,55.44,68,49,2.15,KR,1697239927
411,pacasmayo,-7.4006,-79.5714,67.3,82,55,13.09,PE,1697239927
412,yatou,37.15,122.3833,60.94,66,6,13.56,CN,1697239927
413,chernyshevskiy,63.0128,112.4714,26.02,91,100,4.52,RU,1697239927
414,paita,-5.0892,-81.1144,68.76,81,22,17.09,PE,1697239928
415,zhezqazghan,47.7833,67.7667,40.26,54,50,8.41,KZ,1697239928
416,luderitz,-26.6481,15.1594,58.15,70,0,15.95,NA,1697239928
417,ola,59.5833,151.2833,28.42,53,87,7.2,RU,1697239928
418,helena valley southeast,46.6153,-111.9216,57.34,64,100,9.22,US,1697239929
419,fort wellington,6.4,-57.6,81.9,78,37,9.4,GY,1697239929
420,shimoda,34.6667,138.95,70.16,62,56,4.81,JP,1697239929
421,kampong speu,11.5,104.3333,77.99,86,77,2.04,KH,1697239929
422,kolonia,50.9333,6.95,69.06,75,0,14.97,DE,1697239833
423,brookings,44.3114,-96.7984,47.17,96,100,17.27,US,1697239640
424,kismayo,-0.3582,42.5454,78.21,87,12,8.3,SO,1697239930
425,ankazoabo,-22.2833,44.5167,71.01,53,27,2.84,MG,1697239930
426,ponta delgada,37.7333,-25.6667,73.18,94,75,10.36,PT,1697239930
427,sao filipe,14.8961,-24.4956,80.92,80,93,1.88,CV,1697239931
428,labuan,5.2767,115.2417,80.96,88,20,2.3,MY,1697239931
429,cockburn town,21.4612,-71.1419,87.76,70,40,5.75,TC,1697239931
430,nelson,-41.2833,173.2833,55.42,90,99,7.4,NZ,1697239735
431,las lomitas,-24.7096,-60.593,66.24,32,2,6.15,AR,1697239932
432,chinde,26.8418,88.0763,57.61,86,5,3.96,NP,1697239932
433,greymouth,-42.4667,171.2,53.44,84,91,21.77,NZ,1697239932
434,bikin,46.8161,134.26,56.39,62,26,4.03,RU,1697239932
435,heihe,50.2441,127.4902,48.45,55,37,5.06,CN,1697239933
436,chebba,35.2372,11.115,72.45,66,0,2.68,TN,1697239933
437,la ronge,55.1001,-105.2842,50.25,62,100,5.75,CA,1697239933
438,saint croix,17.7397,-64.7388,86.45,82,0,1.99,VI,1697239933
439,xining,36.6167,101.7667,38.44,73,26,2.8,CN,1697239933
440,satana,20.5833,74.2,75.78,59,55,1.74,IN,1697239934
441,bathsheba,13.2167,-59.5167,81.21,78,20,6.91,BB,1697239934
442,waingapu,-9.6567,120.2641,82.49,69,14,9.33,ID,1697239934
443,ndele,8.4109,20.6473,73.58,90,67,2.77,CF,1697239935
444,francisco sa,-16.4758,-43.4883,86.14,35,100,9.13,BR,1697239935
445,barranca,-10.75,-77.7667,65.77,82,49,7.83,PE,1697239935
446,naze,28.3667,129.4833,74.32,71,72,9.4,JP,1697239935
447,shahr-e babak,30.1165,55.1186,65.05,26,57,6.08,IR,1697239936
448,bykovo,55.6361,38.0803,46.26,85,0,21.99,RU,1697239936
449,pasuquin,18.3328,120.6177,78.75,89,40,3.44,PH,1697239936
450,west bay,19.3667,-81.4167,87.87,78,40,8.05,KY,1697239936
451,selkirk,50.1436,-96.8845,52.16,68,100,5.99,CA,1697239807
452,tamanrasset,22.785,5.5228,73.31,25,0,8.05,DZ,1697239937
453,maloye ganyushkino,46.6,49.2667,57.15,85,100,10.69,KZ,1697239937
454,thunder bay,48.4001,-89.3168,48.18,87,100,4.61,CA,1697239646
455,thurso,58.5927,-3.5259,45.86,67,95,39.82,GB,1697239937
456,bou ismail,36.6426,2.6901,64.08,38,0,6.17,DZ,1697239938
457,rangsdorf,52.295,13.4334,70.02,65,0,10.36,DE,1697239938
458,aromashevo,56.8602,68.6375,43.38,78,100,14.63,RU,1697239938
459,duekoue,6.7472,-7.3496,72.7,99,100,2.37,CI,1697239938
460,buala,-8.145,159.5921,84.6,74,97,8.75,SB,1697239939
461,erseke,40.3378,20.6789,55.0,64,6,1.16,AL,1697239939
462,toktogul,41.8708,72.9402,41.67,64,38,2.13,KG,1697239939
463,pangkalpinang,-2.1333,106.1333,80.13,75,97,6.51,ID,1697239939
464,shimabara,32.7833,130.3667,69.67,83,100,2.15,JP,1697239940
465,cannonvale,-20.2833,148.7,74.59,59,6,5.32,AU,1697239940
466,diego de almagro,-26.3667,-70.05,65.66,36,0,2.33,CL,1697239940
467,horta,38.5333,-28.6333,65.01,94,100,15.01,PT,1697239940
468,umluj,25.0213,37.2685,81.32,52,0,10.63,SA,1697239941
469,al kharj,24.155,47.3346,81.18,20,0,2.98,SA,1697239941
470,darwin,-12.4611,130.8418,88.9,74,20,3.44,AU,1697239941
471,kaiapoi,-43.3783,172.6401,64.74,45,1,41.43,NZ,1697239941
472,serdar,38.9764,56.2757,53.11,36,2,12.24,TM,1697239941
473,san rafael del sur,11.8485,-86.4384,81.57,86,84,3.49,NI,1697239942
474,padang,-0.9492,100.3543,75.25,88,93,1.9,ID,1697239886
475,assab,13.0092,42.7394,84.07,76,5,18.41,ER,1697239942
476,olinda,-8.0089,-34.8553,80.33,74,75,9.22,BR,1697239942
477,vetluga,57.8557,45.781,39.22,83,13,9.17,RU,1697239943
478,carutapera,-1.195,-46.02,80.31,80,90,9.91,BR,1697239943
479,raduzhny,62.0961,77.475,38.17,97,100,12.55,RU,1697239943
480,zhumysker,49.3333,49.4,52.77,63,100,8.88,KZ,1697239943
481,acapulco de juarez,16.8634,-99.8901,87.62,74,75,5.75,MX,1697239722
482,pisco,-13.7,-76.2167,68.05,77,0,12.66,PE,1697239944
483,nyurba,63.2842,118.3319,26.04,51,93,4.0,RU,1697239944
484,saint-francois,46.4154,3.9054,71.04,57,0,9.22,FR,1697239944
485,geidam,12.897,11.9304,87.19,21,35,7.31,NG,1697239944
486,lethem,3.3803,-59.7968,86.68,46,89,5.32,GY,1697239945
487,barra de santo antonio,-9.4047,-35.5072,76.28,83,3,9.19,BR,1697239945
488,tahe,52.3333,124.7333,47.88,67,64,4.09,CN,1697239945
489,anna regina,7.2644,-58.5077,82.83,76,24,9.62,GY,1697239945
490,chonchi,-42.6128,-73.8092,49.21,94,91,4.59,CL,1697239946
491,kaa-khem,51.6833,94.7333,40.41,67,20,3.56,RU,1697239946
492,balneario camboriu,-26.9906,-48.6347,62.56,77,75,3.44,BR,1697239946
493,happy valley-goose bay,53.3168,-60.3315,48.51,81,100,11.5,CA,1697239946
494,portland,45.5234,-122.6762,68.05,68,100,11.5,US,1697239947
495,sao jose da coroa grande,-8.8978,-35.1478,77.43,83,10,9.46,BR,1697239845
496,santa cruz verapaz,15.3667,-90.4333,72.36,78,75,4.61,GT,1697239947
497,kilindoni,-7.9139,39.6668,77.76,84,5,7.23,TZ,1697239947
498,leninskoye,41.7589,69.3864,41.32,74,3,6.55,KZ,1697239947
499,lazarevskoye,43.9061,39.3331,58.89,61,45,4.56,RU,1697239948
500,homer,59.6425,-151.5483,46.29,72,0,4.61,US,1697239948
501,gifford,27.6753,-80.4092,84.06,90,100,4.61,US,1697239948
502,katsuura,35.1333,140.3,68.59,52,26,2.86,JP,1697239948
503,nasielsk,52.5889,20.8055,63.57,71,93,13.31,PL,1697239949
504,queenstown,-31.8976,26.8753,52.02,71,87,5.66,ZA,1697239811
505,amnat charoen,15.9167,104.75,72.88,90,100,9.62,TH,1697239949
506,marka,1.7159,44.7717,77.83,87,13,7.23,SO,1697239949
507,auki,-8.7676,160.7034,85.93,65,90,1.36,SB,1697239949
508,muntok,-2.0667,105.1833,79.27,79,98,6.89,ID,1697239950
509,aracena,37.894,-6.5612,61.07,88,100,3.76,ES,1697239950
510,cootamundra,-34.65,148.0333,60.94,53,26,13.51,AU,1697239951
511,matamey,13.4231,8.4749,85.82,21,97,10.02,NE,1697239951
512,dosso,13.049,3.1937,84.4,39,57,1.97,NE,1697239951
513,malkerns,-26.5667,31.1833,63.0,77,98,3.06,SZ,1697239951
514,kristinehamn,59.3098,14.1081,48.76,86,95,17.31,SE,1697239952
515,dawson creek,55.7666,-120.2362,49.64,76,20,11.5,CA,1697239952
516,kununurra,-15.7667,128.7333,87.78,35,98,4.61,AU,1697239952
517,nikolayevsk-on-amure,53.1406,140.73,46.53,56,42,4.63,RU,1697239952
518,wladyslawowo,54.7909,18.4009,68.94,64,67,25.34,PL,1697239952
519,itaueira,-7.6033,-43.0256,91.22,24,50,7.16,BR,1697239953
520,beau vallon,-20.4189,57.6953,73.63,73,40,6.91,MU,1697239953
521,kapuskasing,49.4169,-82.4331,44.6,93,100,8.05,CA,1697239809
522,cururupu,-1.8283,-44.8683,76.75,86,48,4.97,BR,1697239953
523,east end,34.5507,-92.341,70.74,92,83,7.61,US,1697239953
524,isesaki,36.3167,139.2,65.28,40,46,2.57,JP,1697239954
525,digapahandi,19.3667,84.5833,76.5,80,69,0.85,IN,1697239954
526,moramanga,-18.9333,48.2,63.09,96,79,3.0,MG,1697239954
527,ibarreta,-25.2144,-59.8585,66.2,35,0,8.77,AR,1697239954
528,shalkar,47.8288,59.6258,45.1,66,64,12.62,KZ,1697239955
529,nguigmi,14.2495,13.1092,87.94,25,11,12.82,NE,1697239955
530,lautoka,-17.6167,177.4667,87.66,55,20,8.05,FJ,1697239955
531,vrnograc,45.1636,15.9536,53.47,87,26,4.99,BA,1697239955
532,kogalym,62.2654,74.4791,39.33,96,100,16.96,RU,1697239955
533,tamiahua,21.2667,-97.45,82.9,90,56,6.76,MX,1697239956
534,colonia,50.9333,6.95,69.06,74,0,14.97,DE,1697239802
535,okulovka,58.4008,33.2908,47.55,94,100,13.0,RU,1697239956
536,kars,40.602,43.095,36.05,87,0,3.44,TR,1697239956
537,fuerte olimpo,-21.0415,-57.8738,75.24,49,56,7.36,PY,1697239957
538,springs,-26.25,28.4,60.33,32,0,7.07,ZA,1697239957
539,rumoi,43.9344,141.6428,61.88,68,72,5.1,JP,1697239957
540,avarua,-21.2078,-159.775,77.05,73,75,6.91,CK,1697239957
541,kiunga,-6.1219,141.2906,79.57,84,93,3.89,PG,1697239957
542,bozhou,33.8772,115.7703,64.04,66,17,6.46,CN,1697239958
543,toamasina,-18.1667,49.3833,73.4,88,75,6.91,MG,1697239958
544,rincon,32.296,-81.2354,73.36,94,100,8.05,US,1697239958
545,shimo-furano,43.35,142.3833,54.0,66,59,3.36,JP,1697239959
546,zuni pueblo,35.0725,-108.8506,65.03,15,15,8.05,US,1697239959
547,mitsamiouli,-11.3847,43.2844,79.2,86,8,14.74,KM,1697239959
548,la gi,10.6667,107.7833,79.59,83,100,2.62,VN,1697239959
549,sangueya,10.7,-14.3667,75.29,93,100,0.72,GN,1697239959
550,graaff-reinet,-32.2522,24.5308,50.92,91,33,3.87,ZA,1697239960
551,saint-philippe,-21.3585,55.7679,71.19,84,28,8.86,RE,1697239960
552,kudahuvadhoo,2.6708,72.8944,81.86,67,85,10.94,MV,1697239960
553,vizinga,61.0749,50.1031,39.11,84,100,12.28,RU,1697239960
554,butterworth,5.3991,100.3638,80.64,89,20,5.01,MY,1697239960
555,shaowu,27.3409,117.4831,65.98,84,92,2.33,CN,1697239961
556,loen,7.7601,168.2307,83.1,73,92,5.55,MH,1697239961
557,tindouf,27.6711,-8.1474,73.85,23,0,5.75,DZ,1697239961
558,megion,61.0296,76.1136,39.22,92,100,15.08,RU,1697239961
559,sierra grande,-41.606,-65.3557,54.91,59,51,7.99,AR,1697239961
560,gillette,44.2911,-105.5022,41.92,73,100,10.36,US,1697239962
561,burang,30.25,81.1667,34.7,80,51,2.24,CN,1697239962
562,port augusta,-32.5,137.7667,65.01,54,4,9.04,AU,1697239962
563,abong mbang,3.9833,13.1833,67.84,99,79,1.79,CM,1697239962
564,lengshuitan,26.4111,111.5956,62.89,80,99,3.42,CN,1697239962
565,jose bonifacio,-21.0528,-49.6883,78.06,69,79,13.42,BR,1697239963
566,sechura,-5.5569,-80.8222,70.52,74,15,18.32,PE,1697239963
567,praia,14.9215,-23.5087,81.14,83,20,4.61,CV,1697239859
568,torghay,49.6339,63.4981,46.63,56,100,13.98,KZ,1697239963
569,remire-montjoly,4.9167,-52.2667,82.44,78,0,6.91,GF,1697239963
570,praia da vitoria,38.7333,-27.0667,68.76,94,75,12.93,PT,1697239964
571,las tablas,7.7667,-80.2833,81.52,83,85,4.27,PA,1697239964
572,ebaye,8.7748,167.7392,86.02,74,0,8.05,MH,1697239964
573,boyolangu,-8.1181,111.8935,79.02,76,90,6.53,ID,1697239964
574,wattegama,6.7989,81.4808,74.5,92,100,2.21,LK,1697239965
575,isiro,2.7739,27.616,68.61,94,94,1.21,CD,1697239965
576,sinabang,2.4803,96.3801,77.25,89,94,8.7,ID,1697239965
577,poronaysk,49.2167,143.1167,51.3,68,96,3.58,RU,1697239965
578,cotacachi,0.3,-78.2667,60.35,89,97,0.31,EC,1697239965
579,ambon,-3.6954,128.1814,82.54,83,40,2.3,ID,1697239966
580,yantarnyy,54.8717,19.9381,66.06,77,78,26.02,RU,1697239966
